[ {
  "division" : "GREENWAY",
  "name" : "ACTION DEPOT",
  "feature_id" : "57413",
  "longitude" : "149.068671249815",
  "latitude" : "-35.4227488622775",
  "extracted" : "20150601",
  "district" : "TUGGERANONG",
  "type" : "BUILDING"
}
, {
  "division" : "ISABELLA PLAINS",
  "name" : "MACKILLOP CATHOLIC COLLEGE",
  "feature_id" : "58169",
  "longitude" : "149.093001414107",
  "latitude" : "-35.4239227736602",
  "extracted" : "20150601",
  "district" : "TUGGERANONG",
  "type" : "MISCELLANEOUS"
}
, {
  "name" : "CAMP COTTERMOUTH RECREATION AREA",
  "feature_id" : "57928",
  "longitude" : "148.961321955453",
  "latitude" : "-35.3312936736285",
  "extracted" : "20150601",
  "district" : "STROMLO",
  "type" : "MISCELLANEOUS"
}
, {
  "name" : "GREENHILLS RESIDENCE",
  "feature_id" : "57929",
  "longitude" : "148.958267969932",
  "latitude" : "-35.3301216513057",
  "extracted" : "20150601",
  "district" : "STROMLO",
  "type" : "BUILDING"
}
, {
  "name" : "MUGGA",
  "feature_id" : "57934",
  "longitude" : "149.136981095767",
  "latitude" : "-35.3756356085561",
  "extracted" : "20150601",
  "district" : "JERRABOMBERRA",
  "type" : "HOMESTEAD, OUTSTATION, OUTCAMP, WOOLSHED"
}
, {
  "division" : "WANNIASSA",
  "name" : "MACKILLOP CATHOLIC COLLEGE",
  "feature_id" : "58171",
  "longitude" : "149.090939380482",
  "latitude" : "-35.405258077602",
  "extracted" : "20150601",
  "district" : "TUGGERANONG",
  "type" : "BUILDING"
}
, {
  "division" : "YARRALUMLA",
  "name" : "BALMORAL",
  "feature_id" : "58187",
  "longitude" : "149.097361915048",
  "latitude" : "-35.3084950571633",
  "extracted" : "20150601",
  "district" : "CANBERRA CENTRAL",
  "type" : "BUILDING"
}
, {
  "division" : "BRADDON",
  "name" : "GRAYSONS",
  "feature_id" : "58197",
  "longitude" : "149.135890211358",
  "latitude" : "-35.26843754417",
  "extracted" : "20150601",
  "district" : "CANBERRA CENTRAL",
  "type" : "BUILDING"
}
, {
  "division" : "BRADDON",
  "name" : "DEVONPORT",
  "feature_id" : "58199",
  "longitude" : "149.133124807712",
  "latitude" : "-35.2683564188431",
  "extracted" : "20150601",
  "district" : "CANBERRA CENTRAL",
  "type" : "BUILDING"
}
, {
  "division" : "YARRALUMLA",
  "name" : "CSIRO FORESTRY & FOREST PRODUCTS",
  "feature_id" : "58217",
  "longitude" : "149.093807713952",
  "latitude" : "-35.3036576999423",
  "extracted" : "20150601",
  "district" : "CANBERRA CENTRAL",
  "type" : "BUILDING"
}
, {
  "division" : "HAWKER",
  "name" : "TREBORNE",
  "feature_id" : "58167",
  "longitude" : "149.033351563481",
  "latitude" : "-35.2441032953366",
  "extracted" : "20150601",
  "district" : "BELCONNEN",
  "type" : "MISCELLANEOUS"
}
, {
  "name" : "COPPINS CROSSING",
  "feature_id" : "53337",
  "longitude" : "149.039524153867",
  "latitude" : "-35.2860331599841",
  "extracted" : "20150601",
  "district" : "BELCONNEN",
  "type" : "FORD, CROSSING"
}
, {
  "name" : "ROSEGLEN",
  "feature_id" : "57890",
  "longitude" : "149.196325795699",
  "latitude" : "-35.3567609274954",
  "extracted" : "20150601",
  "district" : "JERRABOMBERRA",
  "type" : "BUILDING"
}
, {
  "name" : "HUNTLY COTTAGE",
  "feature_id" : "57897",
  "longitude" : "148.97060940863",
  "latitude" : "-35.2763672199408",
  "extracted" : "20150601",
  "district" : "STROMLO",
  "type" : "BUILDING"
}
, {
  "name" : "PINEY CREEK",
  "feature_id" : "57900",
  "longitude" : "149.001106851301",
  "latitude" : "-35.2932567246701",
  "extracted" : "20150601",
  "district" : "STROMLO",
  "type" : "BUILDING"
}
, {
  "division" : "CITY",
  "name" : "GLEBE PARK",
  "feature_id" : "50715",
  "longitude" : "149.136291916279",
  "latitude" : "-35.2822689141922",
  "extracted" : "20150601",
  "district" : "CANBERRA CENTRAL",
  "type" : "RESERVE,PARK,NATIONAL PARK,CONSERVATION PARK,COMMON"
}
, {
  "name" : "GIBRALTAR VALLEY",
  "feature_id" : "53086",
  "longitude" : "148.960822947089",
  "latitude" : "-35.4670470200685",
  "extracted" : "20150601",
  "district" : "PADDYS RIVER",
  "type" : "VALLEY, DALE, DELL, VALE"
}
, {
  "name" : "GIBRALTAR CREEK",
  "feature_id" : "57908",
  "longitude" : "148.977142152836",
  "latitude" : "-35.4545009875964",
  "extracted" : "20150601",
  "district" : "PADDYS RIVER",
  "type" : "HOMESTEAD, OUTSTATION, OUTCAMP, WOOLSHED"
}
, {
  "name" : "BELCONNEN",
  "feature_id" : "53931",
  "longitude" : "148.974158995569",
  "latitude" : "-35.2146695387164",
  "extracted" : "20150601",
  "district" : "BELCONNEN",
  "type" : "HOMESTEAD, OUTSTATION, OUTCAMP, WOOLSHED"
}
, {
  "name" : "COTTER DAM",
  "feature_id" : "53022",
  "longitude" : "148.931186043088",
  "latitude" : "-35.3175908750671",
  "extracted" : "20150601",
  "district" : "COREE",
  "type" : "DAM, WEIR, CATCHMENT, BARRAGE"
}
, {
  "division" : "PALMERSTON",
  "name" : "PALMERSTON MEDICAL CENTRE",
  "feature_id" : "57864",
  "longitude" : "149.118480876777",
  "latitude" : "-35.197153800127",
  "extracted" : "20150601",
  "district" : "GUNGAHLIN",
  "type" : "BUILDING"
}
, {
  "division" : "SCULLIN",
  "name" : "SCULLIN SALVATION ARMY HALL",
  "feature_id" : "56654",
  "longitude" : "149.038931076469",
  "latitude" : "-35.2335601946333",
  "extracted" : "20150601",
  "district" : "BELCONNEN",
  "type" : "BUILDING"
}
, {
  "name" : "COTTER FLATS",
  "feature_id" : "53046",
  "longitude" : "148.831825358398",
  "latitude" : "-35.6441232845206",
  "extracted" : "20150601",
  "district" : "COTTER RIVER",
  "type" : "PLAIN, DOWNS, PRAIRIE, FLAT, HEATH"
}
, {
  "name" : "COTTER GAP",
  "feature_id" : "53101",
  "longitude" : "148.880311426475",
  "latitude" : "-35.6153641288083",
  "extracted" : "20150601",
  "district" : "TENNENT",
  "type" : "PASS, PASSAGE, GAP, COL"
}
, {
  "name" : "COTTER HILL",
  "feature_id" : "53117",
  "longitude" : "148.875178154962",
  "latitude" : "-35.3791397789355",
  "extracted" : "20150601",
  "district" : "COTTER RIVER",
  "type" : "HILL, KNOLL, KNOB, MESA, SUGARLOAF, LOOKOUT"
}
, {
  "name" : "URIARRA PINE FOREST",
  "feature_id" : "53012",
  "longitude" : "148.883881064339",
  "latitude" : "-35.3087559756139",
  "extracted" : "20150601",
  "district" : "COREE",
  "type" : "FOREST, WOOD"
}
, {
  "division" : "GREENWAY",
  "name" : "LAKE TUGGERANONG",
  "feature_id" : "51229",
  "longitude" : "149.067027127546",
  "latitude" : "-35.4079661498033",
  "extracted" : "20150601",
  "district" : "TUGGERANONG",
  "type" : "LAKE, TARN"
}
, {
  "name" : "URIARRA",
  "feature_id" : "53410",
  "longitude" : "148.911846861774",
  "latitude" : "-35.2890343527558",
  "extracted" : "20150601",
  "district" : "COREE",
  "type" : "HOMESTEAD, OUTSTATION, OUTCAMP, WOOLSHED"
}
, {
  "name" : "URIARRA HILL",
  "feature_id" : "53160",
  "longitude" : "148.865421786063",
  "latitude" : "-35.3021438391779",
  "extracted" : "20150601",
  "district" : "COREE",
  "type" : "HILL, KNOLL, KNOB, MESA, SUGARLOAF, LOOKOUT"
}
, {
  "name" : "TIDBINBILLA RANGE",
  "feature_id" : "53208",
  "longitude" : "148.879916884081",
  "latitude" : "-35.4376274855383",
  "extracted" : "20150601",
  "district" : "COTTER RIVER",
  "type" : "RANGE, MOUNTAIN RANGE"
}
, {
  "division" : "NICHOLLS",
  "name" : "NATIONAL DINOSAUR MUSEUM",
  "feature_id" : "57790",
  "longitude" : "149.087725549655",
  "latitude" : "-35.1942143530651",
  "extracted" : "20150601",
  "district" : "GUNGAHLIN",
  "type" : "BUILDING"
}
, {
  "division" : "MITCHELL",
  "name" : "NORWOOD PARK CREMATORIUM",
  "feature_id" : "57795",
  "longitude" : "149.132882598089",
  "latitude" : "-35.2206018632648",
  "extracted" : "20150601",
  "district" : "GUNGAHLIN",
  "type" : "BUILDING"
}
, {
  "division" : "KINGSTON",
  "name" : "GARAGE",
  "feature_id" : "57799",
  "longitude" : "149.142838156703",
  "latitude" : "-35.3162987643503",
  "extracted" : "20150601",
  "district" : "CANBERRA CENTRAL",
  "type" : "BUILDING"
}
, {
  "division" : "MITCHELL",
  "name" : "MITCHELL REPOSITORY",
  "feature_id" : "57777",
  "longitude" : "149.143610655138",
  "latitude" : "-35.2136888418362",
  "extracted" : "20150601",
  "district" : "GUNGAHLIN",
  "type" : "BUILDING"
}
, {
  "name" : "SPRING STATION",
  "feature_id" : "57732",
  "longitude" : "149.047628689674",
  "latitude" : "-35.5049860183709",
  "extracted" : "20150601",
  "district" : "PADDYS RIVER",
  "type" : "HOMESTEAD, OUTSTATION, OUTCAMP, WOOLSHED"
}
, {
  "division" : "THEODORE",
  "name" : "TUGGERANONG HILL",
  "feature_id" : "50723",
  "longitude" : "149.107718368739",
  "latitude" : "-35.4531518577779",
  "extracted" : "20150601",
  "district" : "TUGGERANONG",
  "type" : "HILL, KNOLL, KNOB, MESA, SUGARLOAF, LOOKOUT"
}
, {
  "name" : "TIDBINBILLA PINE FOREST",
  "feature_id" : "53013",
  "longitude" : "148.912340883993",
  "latitude" : "-35.4364782430455",
  "extracted" : "20150601",
  "district" : "PADDYS RIVER",
  "type" : "PLANTATION"
}
, {
  "name" : "TIDBINBILLA MOUNTAIN",
  "feature_id" : "53135",
  "longitude" : "148.867670482927",
  "latitude" : "-35.445529867154",
  "extracted" : "20150601",
  "district" : "COTTER RIVER",
  "type" : "MOUNTAIN"
}
, {
  "name" : "TIDBINBILLA MOUNTAIN",
  "feature_id" : "53135",
  "longitude" : "148.867670482927",
  "latitude" : "-35.445529867154",
  "extracted" : "20150601",
  "district" : "PADDYS RIVER",
  "type" : "MOUNTAIN"
}
, {
  "name" : "TIDBINBILLA NATURE RESERVE",
  "feature_id" : "53897",
  "longitude" : "148.911768232849",
  "latitude" : "-35.461288301172",
  "extracted" : "20150601",
  "district" : "PADDYS RIVER",
  "type" : "RESERVE,PARK,NATIONAL PARK,CONSERVATION PARK,COMMON"
}
, {
  "name" : "COTTER CATCHMENT AREA",
  "feature_id" : "53070",
  "longitude" : "148.834055496291",
  "latitude" : "-35.4150745697032",
  "extracted" : "20150601",
  "district" : "COTTER RIVER",
  "type" : "RESERVE,PARK,NATIONAL PARK,CONSERVATION PARK,COMMON"
}
, {
  "name" : "BOBOYAN (RUINS)",
  "feature_id" : "53378",
  "longitude" : "148.978708473385",
  "latitude" : "-35.846023488706",
  "extracted" : "20150601",
  "district" : "MOUNT CLEAR",
  "type" : "HOMESTEAD, OUTSTATION, OUTCAMP, WOOLSHED"
}
, {
  "division" : "MITCHELL",
  "name" : "NATIONAL MUSEUM OF AUSTRALIA",
  "feature_id" : "57705",
  "longitude" : "149.143620140418",
  "latitude" : "-35.2136179114265",
  "extracted" : "20150601",
  "district" : "GUNGAHLIN",
  "type" : "BUILDING"
}
, {
  "division" : "HALL",
  "name" : "HALL CEMETERY",
  "feature_id" : "57721",
  "longitude" : "149.057065195843",
  "latitude" : "-35.1725949747079",
  "extracted" : "20150601",
  "district" : "HALL",
  "type" : "MISCELLANEOUS"
}
, {
  "division" : "FISHER",
  "name" : "BRONTE VILLAGE",
  "feature_id" : "56550",
  "longitude" : "149.057568385605",
  "latitude" : "-35.3612998128686",
  "extracted" : "20150601",
  "district" : "WESTON CREEK",
  "type" : "BUILDING"
}
, {
  "name" : "BOOROOMBA",
  "feature_id" : "53437",
  "longitude" : "148.979909925535",
  "latitude" : "-35.4867558810205",
  "extracted" : "20150601",
  "district" : "PADDYS RIVER",
  "type" : "HOMESTEAD, OUTSTATION, OUTCAMP, WOOLSHED"
}
, {
  "name" : "BOOROOMBA ROCKS",
  "feature_id" : "53356",
  "longitude" : "148.990215569881",
  "latitude" : "-35.5575661642606",
  "extracted" : "20150601",
  "district" : "TENNENT",
  "type" : "ROCK,BOULDER,PINNACLE,CRAG,NEEDLE,PILLAR,ROCK FORMATION,TOR"
}
, {
  "name" : "BOOTH RANGE",
  "feature_id" : "53204",
  "longitude" : "149.030055116515",
  "latitude" : "-35.7630909890441",
  "extracted" : "20150601",
  "district" : "BOOTH",
  "type" : "RANGE, MOUNTAIN RANGE"
}
, {
  "name" : "CLEAR RANGE",
  "feature_id" : "53203",
  "longitude" : "149.09631024205",
  "latitude" : "-35.7990949409695",
  "extracted" : "20150601",
  "district" : "BOOTH",
  "type" : "RANGE, MOUNTAIN RANGE"
}
, {
  "name" : "BLUNDELLS FLAT",
  "feature_id" : "53026",
  "longitude" : "148.834206512902",
  "latitude" : "-35.3155198064873",
  "extracted" : "20150601",
  "district" : "COTTER RIVER",
  "type" : "PLAIN, DOWNS, PRAIRIE, FLAT, HEATH"
}
, {
  "division" : "KAMBAH",
  "name" : "ANGLEDALE",
  "feature_id" : "57675",
  "longitude" : "149.060540450251",
  "latitude" : "-35.3785776356187",
  "extracted" : "20150601",
  "district" : "TUGGERANONG",
  "type" : "BUILDING"
}
, {
  "division" : "GREENWAY",
  "name" : "ENDEAVOUR GROVE",
  "feature_id" : "57685",
  "longitude" : "149.067429016239",
  "latitude" : "-35.3998971352944",
  "extracted" : "20150601",
  "district" : "TUGGERANONG",
  "type" : "BUILDING"
}
, {
  "name" : "VOWLES ROAD",
  "feature_id" : "10344",
  "extracted" : "20150601",
  "type" : "PRIVATE ROAD"
}
, {
  "name" : "PHEASANT HILL",
  "feature_id" : "53127",
  "longitude" : "148.970170006225",
  "latitude" : "-35.8645524524602",
  "extracted" : "20150601",
  "district" : "MOUNT CLEAR",
  "type" : "HILL, KNOLL, KNOB, MESA, SUGARLOAF, LOOKOUT"
}
, {
  "name" : "REEDY CREEK",
  "feature_id" : "53079",
  "longitude" : "149.245072569361",
  "latitude" : "-35.3127383052443",
  "extracted" : "20150601",
  "district" : "MAJURA",
  "type" : "HOMESTEAD, OUTSTATION, OUTCAMP, WOOLSHED"
}
, {
  "name" : "RIVERLEA",
  "feature_id" : "53444",
  "longitude" : "148.962389854547",
  "latitude" : "-35.3831160456442",
  "extracted" : "20150601",
  "district" : "PADDYS RIVER",
  "type" : "HOMESTEAD, OUTSTATION, OUTCAMP, WOOLSHED"
}
, {
  "name" : "STOCKYARD SPUR",
  "feature_id" : "53064",
  "longitude" : "148.821774078966",
  "latitude" : "-35.5050875550902",
  "extracted" : "20150601",
  "district" : "COTTER RIVER",
  "type" : "HILL, KNOLL, KNOB, MESA, SUGARLOAF, LOOKOUT"
}
, {
  "division" : "CONDER",
  "name" : "ST CLARE OF ASSISI PRIMARY SCHOOL",
  "feature_id" : "57644",
  "longitude" : "149.096955727407",
  "latitude" : "-35.4588295632744",
  "extracted" : "20150601",
  "district" : "TUGGERANONG",
  "type" : "BUILDING"
}
, {
  "division" : "SCULLIN",
  "name" : "NAN'S CHILD CARE CENTRE",
  "feature_id" : "57072",
  "longitude" : "149.04015839314",
  "latitude" : "-35.2324965732172",
  "extracted" : "20150601",
  "district" : "BELCONNEN",
  "type" : "BUILDING"
}
, {
  "division" : "CHARNWOOD",
  "name" : "THE BOSLEM AND HARTE PARK",
  "feature_id" : "57075",
  "longitude" : "149.03423215502",
  "latitude" : "-35.2034479198893",
  "extracted" : "20150601",
  "district" : "BELCONNEN",
  "type" : "RESERVE,PARK,NATIONAL PARK,CONSERVATION PARK,COMMON"
}
, {
  "name" : "JEGGALINE",
  "feature_id" : "57083",
  "longitude" : "149.07255957288",
  "latitude" : "-35.4976121494737",
  "extracted" : "20150601",
  "district" : "TUGGERANONG",
  "type" : "HOMESTEAD, OUTSTATION, OUTCAMP, WOOLSHED"
}
, {
  "division" : "EVATT",
  "name" : "EVATT OVAL",
  "feature_id" : "57026",
  "longitude" : "149.076475341591",
  "latitude" : "-35.2051458575378",
  "extracted" : "20150601",
  "district" : "BELCONNEN",
  "type" : "MISCELLANEOUS"
}
, {
  "name" : "HOSPITAL HILL",
  "feature_id" : "53156",
  "longitude" : "148.990001091425",
  "latitude" : "-35.7859574300439",
  "extracted" : "20150601",
  "district" : "BOOTH",
  "type" : "HILL, KNOLL, KNOB, MESA, SUGARLOAF, LOOKOUT"
}
, {
  "name" : "LEURA GAP",
  "feature_id" : "53039",
  "longitude" : "148.781289469936",
  "latitude" : "-35.6330285950267",
  "extracted" : "20150601",
  "district" : "COTTER RIVER",
  "type" : "PASS, PASSAGE, GAP, COL"
}
, {
  "division" : "GORDON",
  "name" : "GORDON PRESCHOOL",
  "feature_id" : "57598",
  "longitude" : "149.087093047223",
  "latitude" : "-35.4554999163569",
  "extracted" : "20150601",
  "district" : "TUGGERANONG",
  "type" : "BUILDING"
}
, {
  "division" : "WANNIASSA",
  "name" : "WANNIASSA OVAL",
  "feature_id" : "57614",
  "longitude" : "149.094951294359",
  "latitude" : "-35.4046604518655",
  "extracted" : "20150601",
  "district" : "TUGGERANONG",
  "type" : "MISCELLANEOUS"
}
, {
  "division" : "FRASER",
  "name" : "FRASER OVAL",
  "feature_id" : "57028",
  "longitude" : "149.041310246343",
  "latitude" : "-35.1932061070067",
  "extracted" : "20150601",
  "district" : "BELCONNEN",
  "type" : "MISCELLANEOUS"
}
, {
  "division" : "SCULLIN",
  "name" : "OVAL",
  "feature_id" : "57037",
  "longitude" : "149.039011332905",
  "latitude" : "-35.230678089428",
  "extracted" : "20150601",
  "district" : "BELCONNEN",
  "type" : "MISCELLANEOUS"
}
, {
  "division" : "SPENCE",
  "name" : "SPENCE OVAL",
  "feature_id" : "57040",
  "longitude" : "149.06407257728",
  "latitude" : "-35.195797837616",
  "extracted" : "20150601",
  "district" : "BELCONNEN",
  "type" : "MISCELLANEOUS"
}
, {
  "division" : "SPENCE",
  "name" : "CHILDCARE CENTRE",
  "feature_id" : "57041",
  "longitude" : "149.0665573476",
  "latitude" : "-35.203650200337",
  "extracted" : "20150601",
  "district" : "BELCONNEN",
  "type" : "BUILDING"
}
, {
  "division" : "MELBA",
  "name" : "MELBA SHOPS",
  "feature_id" : "57043",
  "longitude" : "149.048657325489",
  "latitude" : "-35.2081851252747",
  "extracted" : "20150601",
  "district" : "BELCONNEN",
  "type" : "BUILDING"
}
, {
  "name" : "HARDY RANGE",
  "feature_id" : "53205",
  "longitude" : "148.897286804913",
  "latitude" : "-35.364857417346",
  "extracted" : "20150601",
  "district" : "COTTER RIVER",
  "type" : "RANGE, MOUNTAIN RANGE"
}
, {
  "name" : "CONGWARRA",
  "feature_id" : "53450",
  "longitude" : "148.943673709711",
  "latitude" : "-35.4135735005264",
  "extracted" : "20150601",
  "district" : "PADDYS RIVER",
  "type" : "HOMESTEAD, OUTSTATION, OUTCAMP, WOOLSHED"
}
, {
  "name" : "MOUNT DOMAIN",
  "feature_id" : "53184",
  "longitude" : "148.86923090069",
  "latitude" : "-35.4741504906093",
  "extracted" : "20150601",
  "district" : "COTTER RIVER",
  "type" : "MOUNTAIN"
}
, {
  "name" : "AMBERLY",
  "feature_id" : "57585",
  "longitude" : "149.02863052051",
  "latitude" : "-35.3934320832183",
  "extracted" : "20150601",
  "district" : "TUGGERANONG",
  "type" : "HOMESTEAD, OUTSTATION, OUTCAMP, WOOLSHED"
}
, {
  "division" : "SPENCE",
  "name" : "WARROCK COURT",
  "feature_id" : "56953",
  "longitude" : "149.062068070031",
  "latitude" : "-35.195120976338",
  "extracted" : "20150601",
  "district" : "BELCONNEN",
  "type" : "BUILDING"
}
, {
  "division" : "AMAROO",
  "name" : "CALARA GARDENS",
  "feature_id" : "58076",
  "longitude" : "149.125846571534",
  "latitude" : "-35.172000827214",
  "extracted" : "20150601",
  "district" : "GUNGAHLIN",
  "type" : "MISCELLANEOUS"
}
, {
  "division" : "HALL",
  "name" : "MULANGGARI GARDENS",
  "feature_id" : "58081",
  "longitude" : "149.069162366302",
  "latitude" : "-35.1699864330858",
  "extracted" : "20150601",
  "district" : "HALL",
  "type" : "BUILDING"
}
, {
  "division" : "NGUNNAWAL",
  "name" : "NGUNNAWAL PRIMARY SCHOOL",
  "feature_id" : "58085",
  "longitude" : "149.111028385345",
  "latitude" : "-35.1686371177649",
  "extracted" : "20150601",
  "district" : "GUNGAHLIN",
  "type" : "BUILDING"
}
, {
  "division" : "FLOREY",
  "name" : "FLOREY MEDICAL CENTRE",
  "feature_id" : "56965",
  "longitude" : "149.053983174806",
  "latitude" : "-35.2256791854985",
  "extracted" : "20150601",
  "district" : "BELCONNEN",
  "type" : "BUILDING"
}
, {
  "division" : "FLOREY",
  "name" : "GABRIEL GARDENS",
  "feature_id" : "56966",
  "longitude" : "149.055716923362",
  "latitude" : "-35.2293261907741",
  "extracted" : "20150601",
  "district" : "BELCONNEN",
  "type" : "BUILDING"
}
, {
  "division" : "WANNIASSA",
  "name" : "TUGGERANONG VALLEY RUGBY UNION CLUB",
  "feature_id" : "57496",
  "longitude" : "149.097026111118",
  "latitude" : "-35.4058250477995",
  "extracted" : "20150601",
  "district" : "TUGGERANONG",
  "type" : "BUILDING"
}
, {
  "division" : "KAMBAH",
  "name" : "PROFESSIONAL CENTRE",
  "feature_id" : "57504",
  "longitude" : "149.069186188879",
  "latitude" : "-35.3949961431549",
  "extracted" : "20150601",
  "district" : "TUGGERANONG",
  "type" : "BUILDING"
}
, {
  "division" : "CHARNWOOD",
  "name" : "ELLENTHORPE COURT",
  "feature_id" : "56939",
  "longitude" : "149.035606986183",
  "latitude" : "-35.2048302011533",
  "extracted" : "20150601",
  "district" : "BELCONNEN",
  "type" : "MISCELLANEOUS"
}
, {
  "division" : "FLOREY",
  "name" : "CARLAMINDA COURT",
  "feature_id" : "56940",
  "longitude" : "149.052562278658",
  "latitude" : "-35.2247487860749",
  "extracted" : "20150601",
  "district" : "BELCONNEN",
  "type" : "BUILDING"
}
, {
  "division" : "WANNIASSA",
  "name" : "SCOUT HALL",
  "feature_id" : "57471",
  "longitude" : "149.083105090256",
  "latitude" : "-35.3923522204212",
  "extracted" : "20150601",
  "district" : "TUGGERANONG",
  "type" : "BUILDING"
}
, {
  "division" : "WANNIASSA",
  "name" : "TENNIS COURTS",
  "feature_id" : "57486",
  "longitude" : "149.094149712995",
  "latitude" : "-35.4032730603216",
  "extracted" : "20150601",
  "district" : "TUGGERANONG",
  "type" : "MISCELLANEOUS"
}
, {
  "name" : "COTTER PUMPING STATION & HOUSES",
  "feature_id" : "57957",
  "longitude" : "148.951524731091",
  "latitude" : "-35.3222982266629",
  "extracted" : "20150601",
  "district" : "STROMLO",
  "type" : "BUILDING"
}
, {
  "division" : "OAKS ESTATE",
  "name" : "GILLESPIE PARK",
  "feature_id" : "57959",
  "longitude" : "149.227453402044",
  "latitude" : "-35.3417600803413",
  "extracted" : "20150601",
  "district" : "JERRABOMBERRA",
  "type" : "RESERVE,PARK,NATIONAL PARK,CONSERVATION PARK,COMMON"
}
, {
  "division" : "NGUNNAWAL",
  "name" : "BOMBALA GARDENS",
  "feature_id" : "57968",
  "longitude" : "149.102708891402",
  "latitude" : "-35.1708114382769",
  "extracted" : "20150601",
  "district" : "GUNGAHLIN",
  "type" : "BUILDING"
}
, {
  "name" : "CANBERRA MODEL AEROPLANE CLUB",
  "feature_id" : "57971",
  "longitude" : "149.165514310257",
  "latitude" : "-35.3631060218573",
  "extracted" : "20150601",
  "district" : "JERRABOMBERRA",
  "type" : "MISCELLANEOUS"
}
, {
  "division" : "KAMBAH",
  "name" : "VALLEYFIELD COURT",
  "feature_id" : "57434",
  "longitude" : "149.060383127296",
  "latitude" : "-35.3798065535429",
  "extracted" : "20150601",
  "district" : "TUGGERANONG",
  "type" : "BUILDING"
}
, {
  "division" : "REID",
  "name" : "REID COURT",
  "feature_id" : "54840",
  "longitude" : "149.141273796489",
  "latitude" : "-35.2779620341263",
  "extracted" : "20150601",
  "district" : "CANBERRA CENTRAL",
  "type" : "BUILDING"
}
, {
  "division" : "BELCONNEN",
  "name" : "TOWNCENTRE ESTATE",
  "feature_id" : "56320",
  "longitude" : "149.073653914387",
  "latitude" : "-35.2484176297616",
  "extracted" : "20150601",
  "district" : "BELCONNEN",
  "type" : "BUILDING"
}
, {
  "division" : "O'MALLEY",
  "name" : "CABARITA TERRACE",
  "feature_id" : "55823",
  "longitude" : "149.110994613964",
  "latitude" : "-35.3499091296231",
  "extracted" : "20150601",
  "district" : "WODEN VALLEY",
  "type" : "BUILDING"
}
, {
  "name" : "BROULA STREET",
  "feature_id" : "13443",
  "extracted" : "20150601",
  "type" : "PRIVATE ROAD"
}
, {
  "division" : "PHILLIP",
  "name" : "CALLAM OFFICES",
  "feature_id" : "55778",
  "longitude" : "149.08938750001",
  "latitude" : "-35.3430854827636",
  "extracted" : "20150601",
  "district" : "WODEN VALLEY",
  "type" : "BUILDING"
}
, {
  "division" : "NARRABUNDAH",
  "name" : "BROOKFIELD GARDENS",
  "feature_id" : "55306",
  "longitude" : "149.152726330381",
  "latitude" : "-35.3347135253675",
  "extracted" : "20150601",
  "district" : "CANBERRA CENTRAL",
  "type" : "BUILDING"
}
, {
  "division" : "GRIFFITH",
  "name" : "STAFFORDSHIRE TERRACE",
  "feature_id" : "55314",
  "longitude" : "149.149704697428",
  "latitude" : "-35.3251136990134",
  "extracted" : "20150601",
  "district" : "CANBERRA CENTRAL",
  "type" : "BUILDING"
}
, {
  "division" : "YARRALUMLA",
  "name" : "KILLYMOON COURT",
  "feature_id" : "54797",
  "longitude" : "149.098671994387",
  "latitude" : "-35.3084530722203",
  "extracted" : "20150601",
  "district" : "CANBERRA CENTRAL",
  "type" : "BUILDING"
}
, {
  "division" : "YARRALUMLA",
  "name" : "DELAMORE COURT",
  "feature_id" : "54799",
  "longitude" : "149.097789646378",
  "latitude" : "-35.3069360110993",
  "extracted" : "20150601",
  "district" : "CANBERRA CENTRAL",
  "type" : "BUILDING"
}
, {
  "division" : "YARRALUMLA",
  "name" : "LAKEVIEW",
  "feature_id" : "54740",
  "longitude" : "149.106509107787",
  "latitude" : "-35.3021876410881",
  "extracted" : "20150601",
  "district" : "CANBERRA CENTRAL",
  "type" : "BUILDING"
}
, {
  "division" : "RED HILL",
  "name" : "FEDERAL GOLF CLUB",
  "feature_id" : "55799",
  "longitude" : "149.108331085116",
  "latitude" : "-35.3316230810991",
  "extracted" : "20150601",
  "district" : "WODEN VALLEY",
  "type" : "MISCELLANEOUS"
}
, {
  "division" : "PHILLIP",
  "name" : "YAMBA SPORTS CLUBS",
  "feature_id" : "55777",
  "longitude" : "149.085616124577",
  "latitude" : "-35.3381503038357",
  "extracted" : "20150601",
  "district" : "WODEN VALLEY",
  "type" : "BUILDING"
}
, {
  "division" : "YARRALUMLA",
  "name" : "COMMONWEALTH CLUB",
  "feature_id" : "54713",
  "longitude" : "149.119128538604",
  "latitude" : "-35.3041110818986",
  "extracted" : "20150601",
  "district" : "CANBERRA CENTRAL",
  "type" : "BUILDING"
}
, {
  "name" : "DRIVER TRAINING CENTRE",
  "feature_id" : "55767",
  "longitude" : "149.238580972651",
  "latitude" : "-35.3193949729323",
  "extracted" : "20150601",
  "district" : "MAJURA",
  "type" : "MISCELLANEOUS"
}
, {
  "division" : "PHILLIP",
  "name" : "POLICE STATION",
  "feature_id" : "55768",
  "longitude" : "149.088802009641",
  "latitude" : "-35.3453772596504",
  "extracted" : "20150601",
  "district" : "WODEN VALLEY",
  "type" : "BUILDING"
}
, {
  "division" : "O'MALLEY",
  "name" : "EMBASSY OF THE SOCIALISTS REPUBLIC OF VIETNAM",
  "feature_id" : "55771",
  "longitude" : "149.106629407397",
  "latitude" : "-35.3515471621936",
  "extracted" : "20150601",
  "district" : "WODEN VALLEY",
  "type" : "BUILDING"
}
, {
  "division" : "O'MALLEY",
  "name" : "EMBASSY OF THE BOLIVARIAN REPUBLIC OF VENEZUELA",
  "feature_id" : "55773",
  "longitude" : "149.105280119431",
  "latitude" : "-35.3513770221175",
  "extracted" : "20150601",
  "district" : "WODEN VALLEY",
  "type" : "BUILDING"
}
, {
  "division" : "YARRALUMLA",
  "name" : "EMBASSY OF THE ARAB REPUBLIC OF EGYPT",
  "feature_id" : "54737",
  "longitude" : "149.115579954809",
  "latitude" : "-35.3044003484562",
  "extracted" : "20150601",
  "district" : "CANBERRA CENTRAL",
  "type" : "BUILDING"
}
, {
  "division" : "PHILLIP",
  "name" : "CEMETERY",
  "feature_id" : "55724",
  "longitude" : "149.092578827358",
  "latitude" : "-35.3444627219599",
  "extracted" : "20150601",
  "district" : "WODEN VALLEY",
  "type" : "MISCELLANEOUS"
}
, {
  "division" : "HACKETT",
  "name" : "PARK",
  "feature_id" : "54666",
  "longitude" : "149.165831211785",
  "latitude" : "-35.2535263811979",
  "extracted" : "20150601",
  "district" : "CANBERRA CENTRAL",
  "type" : "RESERVE,PARK,NATIONAL PARK,CONSERVATION PARK,COMMON"
}
, {
  "division" : "PHILLIP",
  "name" : "SLOVENIAN-AUSTRALIAN ASSOCIATION",
  "feature_id" : "55683",
  "longitude" : "149.086563062701",
  "latitude" : "-35.3384965838041",
  "extracted" : "20150601",
  "district" : "WODEN VALLEY",
  "type" : "BUILDING"
}
, {
  "division" : "PHILLIP",
  "name" : "GARAGE",
  "feature_id" : "55687",
  "longitude" : "149.08512278781",
  "latitude" : "-35.3501314340937",
  "extracted" : "20150601",
  "district" : "WODEN VALLEY",
  "type" : "BUILDING"
}
, {
  "division" : "PHILLIP",
  "name" : "GARAGE",
  "feature_id" : "55696",
  "longitude" : "149.085720255123",
  "latitude" : "-35.3517681733861",
  "extracted" : "20150601",
  "district" : "WODEN VALLEY",
  "type" : "BUILDING"
}
, {
  "division" : "FORREST",
  "name" : "GLENROCK COURT",
  "feature_id" : "55162",
  "longitude" : "149.130577178168",
  "latitude" : "-35.3187083619909",
  "extracted" : "20150601",
  "district" : "CANBERRA CENTRAL",
  "type" : "BUILDING"
}
, {
  "division" : "GRIFFITH",
  "name" : "OLIVEWOOD COURT",
  "feature_id" : "55163",
  "longitude" : "149.135974704561",
  "latitude" : "-35.3252449005529",
  "extracted" : "20150601",
  "district" : "CANBERRA CENTRAL",
  "type" : "BUILDING"
}
, {
  "division" : "NARRABUNDAH",
  "name" : "HARTWOOD COURT",
  "feature_id" : "55165",
  "longitude" : "149.138948002062",
  "latitude" : "-35.3324251790276",
  "extracted" : "20150601",
  "district" : "CANBERRA CENTRAL",
  "type" : "MISCELLANEOUS"
}
, {
  "division" : "NARRABUNDAH",
  "name" : "KIRKSTON COURT",
  "feature_id" : "55168",
  "longitude" : "149.138469643972",
  "latitude" : "-35.3330499686367",
  "extracted" : "20150601",
  "district" : "CANBERRA CENTRAL",
  "type" : "BUILDING"
}
, {
  "division" : "PHILLIP",
  "name" : "HEALTH CENTRE",
  "feature_id" : "55667",
  "longitude" : "149.084384444163",
  "latitude" : "-35.3451582897604",
  "extracted" : "20150601",
  "district" : "WODEN VALLEY",
  "type" : "BUILDING"
}
, {
  "division" : "FARRER",
  "name" : "ST SAVA SERBIAN ORTHODOX CHURCH",
  "feature_id" : "55625",
  "longitude" : "149.102496189554",
  "latitude" : "-35.376390543885",
  "extracted" : "20150601",
  "district" : "WODEN VALLEY",
  "type" : "BUILDING"
}
, {
  "division" : "GRIFFITH",
  "name" : "EMBASSY OF THE RUSSIAN FEDERATION",
  "feature_id" : "55109",
  "longitude" : "149.138325333071",
  "latitude" : "-35.3206995527589",
  "extracted" : "20150601",
  "district" : "CANBERRA CENTRAL",
  "type" : "BUILDING"
}
, {
  "division" : "DUFFY",
  "name" : "ALPINE GROVE",
  "feature_id" : "56093",
  "longitude" : "149.03196081447",
  "latitude" : "-35.3394383983297",
  "extracted" : "20150601",
  "district" : "WESTON CREEK",
  "type" : "BUILDING"
}
, {
  "division" : "TORRENS",
  "name" : "TORRENS PRESCHOOL",
  "feature_id" : "55585",
  "longitude" : "149.085647692076",
  "latitude" : "-35.3730602908334",
  "extracted" : "20150601",
  "district" : "WODEN VALLEY",
  "type" : "BUILDING"
}
, {
  "division" : "NARRABUNDAH",
  "name" : "SALVATION ARMY HALL",
  "feature_id" : "55059",
  "longitude" : "149.151280486419",
  "latitude" : "-35.3308264154095",
  "extracted" : "20150601",
  "district" : "CANBERRA CENTRAL",
  "type" : "BUILDING"
}
, {
  "division" : "KINGSTON",
  "name" : "ACTEW SUBSTATION",
  "feature_id" : "55539",
  "longitude" : "149.14226162384",
  "latitude" : "-35.3165303651683",
  "extracted" : "20150601",
  "district" : "CANBERRA CENTRAL",
  "type" : "MISCELLANEOUS"
}
, {
  "division" : "DEAKIN",
  "name" : "EMBASSY OF THE ISLAMIC REPUBLIC OF AFGHANISTAN",
  "feature_id" : "55021",
  "longitude" : "149.092330927545",
  "latitude" : "-35.3234909568954",
  "extracted" : "20150601",
  "district" : "CANBERRA CENTRAL",
  "type" : "BUILDING"
}
, {
  "division" : "DEAKIN",
  "name" : "EMBASSY OF THE DEMOCRATIC REPUBLIC OF TIMOR-LESTE",
  "feature_id" : "55026",
  "longitude" : "149.090400457045",
  "latitude" : "-35.3238613542805",
  "extracted" : "20150601",
  "district" : "CANBERRA CENTRAL",
  "type" : "BUILDING"
}
, {
  "division" : "DUFFY",
  "name" : "DUFFY NEIGHBOURHOOD OVAL",
  "feature_id" : "56513",
  "longitude" : "149.035689729469",
  "latitude" : "-35.3364407078339",
  "extracted" : "20150601",
  "district" : "WESTON CREEK",
  "type" : "MISCELLANEOUS"
}
, {
  "division" : "FORREST",
  "name" : "WESLEY UNITING CHURCH",
  "feature_id" : "55040",
  "longitude" : "149.131864648972",
  "latitude" : "-35.3143381486108",
  "extracted" : "20150601",
  "district" : "CANBERRA CENTRAL",
  "type" : "BUILDING"
}
, {
  "name" : "KALLENIA RIVERS",
  "feature_id" : "56528",
  "longitude" : "149.034769117171",
  "latitude" : "-35.2986571344316",
  "extracted" : "20150601",
  "district" : "WESTON CREEK",
  "type" : "HOMESTEAD, OUTSTATION, OUTCAMP, WOOLSHED"
}
, {
  "name" : "VET HOSPITAL",
  "feature_id" : "56530",
  "longitude" : "148.99375968719",
  "latitude" : "-35.2150535934358",
  "extracted" : "20150601",
  "district" : "BELCONNEN",
  "type" : "BUILDING"
}
, {
  "name" : "KOORINGAL",
  "feature_id" : "56533",
  "longitude" : "149.037058831845",
  "latitude" : "-35.1778086575074",
  "extracted" : "20150601",
  "district" : "BELCONNEN",
  "type" : "BUILDING"
}
, {
  "name" : "SHOOTING CLUB",
  "feature_id" : "55944",
  "longitude" : "149.198238222242",
  "latitude" : "-35.2120053667766",
  "extracted" : "20150601",
  "district" : "MAJURA",
  "type" : "RIFLE RANGE, ROCKET RANGE, BOMBING RANGE"
}
, {
  "division" : "KINGSTON",
  "name" : "BRIGHTON",
  "feature_id" : "55455",
  "longitude" : "149.145988332028",
  "latitude" : "-35.3189133257261",
  "extracted" : "20150601",
  "district" : "CANBERRA CENTRAL",
  "type" : "BUILDING"
}
, {
  "division" : "CITY",
  "name" : "CITY PLAZA APARTMENTS",
  "feature_id" : "54954",
  "longitude" : "149.132081910381",
  "latitude" : "-35.2802701170848",
  "extracted" : "20150601",
  "district" : "CANBERRA CENTRAL",
  "type" : "BUILDING"
}
, {
  "division" : "CITY",
  "name" : "ACT LEGISLATIVE ASSEMBLY",
  "feature_id" : "54955",
  "longitude" : "149.131171560646",
  "latitude" : "-35.2815631562367",
  "extracted" : "20150601",
  "district" : "CANBERRA CENTRAL",
  "type" : "BUILDING"
}
, {
  "name" : "RIFLE RANGE",
  "feature_id" : "55943",
  "longitude" : "149.196222445188",
  "latitude" : "-35.2154565993344",
  "extracted" : "20150601",
  "district" : "MAJURA",
  "type" : "RIFLE RANGE, ROCKET RANGE, BOMBING RANGE"
}
, {
  "division" : "PEARCE",
  "name" : "PRE-SCHOOL",
  "feature_id" : "55921",
  "longitude" : "149.084225042815",
  "latitude" : "-35.3643065052715",
  "extracted" : "20150601",
  "district" : "WODEN VALLEY",
  "type" : "BUILDING"
}
, {
  "division" : "NARRABUNDAH",
  "name" : "CHILDCARE CENTRE",
  "feature_id" : "55430",
  "longitude" : "149.149369848494",
  "latitude" : "-35.3293040026126",
  "extracted" : "20150601",
  "district" : "CANBERRA CENTRAL",
  "type" : "BUILDING"
}
, {
  "division" : "WARAMANGA",
  "name" : "WESTON CREEK VETERINARY HOSPITAL",
  "feature_id" : "56464",
  "longitude" : "149.055514897988",
  "latitude" : "-35.3562483449252",
  "extracted" : "20150601",
  "district" : "WESTON CREEK",
  "type" : "BUILDING"
}
, {
  "division" : "WESTON",
  "name" : "ST PETERS ANGLICAN CHURCH",
  "feature_id" : "56408",
  "longitude" : "149.054095101831",
  "latitude" : "-35.342684173179",
  "extracted" : "20150601",
  "district" : "WESTON CREEK",
  "type" : "BUILDING"
}
, {
  "division" : "KALEEN",
  "name" : "MARIBYRNONG PRIMARY SCHOOL",
  "feature_id" : "56410",
  "longitude" : "149.103356453666",
  "latitude" : "-35.2357560924737",
  "extracted" : "20150601",
  "district" : "BELCONNEN",
  "type" : "BUILDING"
}
, {
  "division" : "KALEEN",
  "name" : "HALL",
  "feature_id" : "56418",
  "longitude" : "149.104618808303",
  "latitude" : "-35.2211098537348",
  "extracted" : "20150601",
  "district" : "BELCONNEN",
  "type" : "BUILDING"
}
, {
  "division" : "TORRENS",
  "name" : "TORRENS COMMUNITY HALL",
  "feature_id" : "55926",
  "longitude" : "149.088938782857",
  "latitude" : "-35.3725874543589",
  "extracted" : "20150601",
  "district" : "WODEN VALLEY",
  "type" : "BUILDING"
}
, {
  "name" : "GLENLYLE",
  "feature_id" : "55936",
  "longitude" : "149.186298281657",
  "latitude" : "-35.2243498953168",
  "extracted" : "20150601",
  "district" : "MAJURA",
  "type" : "HOMESTEAD, OUTSTATION, OUTCAMP, WOOLSHED"
}
, {
  "name" : "SUNNYSIDE COTTAGE",
  "feature_id" : "55938",
  "longitude" : "149.194119386747",
  "latitude" : "-35.2720074183439",
  "extracted" : "20150601",
  "district" : "MAJURA",
  "type" : "HOMESTEAD, OUTSTATION, OUTCAMP, WOOLSHED"
}
, {
  "division" : "NARRABUNDAH",
  "name" : "GULGONG COURT",
  "feature_id" : "55444",
  "longitude" : "149.150348700442",
  "latitude" : "-35.3267091851585",
  "extracted" : "20150601",
  "district" : "CANBERRA CENTRAL",
  "type" : "BUILDING"
}
, {
  "division" : "NARRABUNDAH",
  "name" : "LEONORA GARDENS",
  "feature_id" : "55445",
  "longitude" : "149.150558057464",
  "latitude" : "-35.3319732521007",
  "extracted" : "20150601",
  "district" : "CANBERRA CENTRAL",
  "type" : "BUILDING"
}
, {
  "division" : "NARRABUNDAH",
  "name" : "CHILD CARE CENTRE",
  "feature_id" : "55446",
  "longitude" : "149.154562486604",
  "latitude" : "-35.3327227280101",
  "extracted" : "20150601",
  "district" : "CANBERRA CENTRAL",
  "type" : "BUILDING"
}
, {
  "division" : "NARRABUNDAH",
  "name" : "CHURCH",
  "feature_id" : "55451",
  "longitude" : "149.140310409799",
  "latitude" : "-35.3433171864192",
  "extracted" : "20150601",
  "district" : "CANBERRA CENTRAL",
  "type" : "BUILDING"
}
, {
  "division" : "FORREST",
  "name" : "ST CHRISTOPHERS SCHOOL",
  "feature_id" : "55452",
  "longitude" : "149.131388565124",
  "latitude" : "-35.3191736540838",
  "extracted" : "20150601",
  "district" : "CANBERRA CENTRAL",
  "type" : "BUILDING"
}
, {
  "division" : "KINGSTON",
  "name" : "TOILET",
  "feature_id" : "56427",
  "longitude" : "149.142495644231",
  "latitude" : "-35.3163252506463",
  "extracted" : "20150601",
  "district" : "CANBERRA CENTRAL",
  "type" : "BUILDING"
}
, {
  "division" : "MACQUARIE",
  "name" : "JAMISON MEDICAL CENTRE",
  "feature_id" : "56430",
  "longitude" : "149.071337313674",
  "latitude" : "-35.2525089016555",
  "extracted" : "20150601",
  "district" : "BELCONNEN",
  "type" : "BUILDING"
}
, {
  "division" : "BELCONNEN",
  "name" : "ROWAN COURT",
  "feature_id" : "56377",
  "longitude" : "149.071257027112",
  "latitude" : "-35.2471717798942",
  "extracted" : "20150601",
  "district" : "BELCONNEN",
  "type" : "BUILDING"
}
, {
  "name" : "DUNDEE",
  "feature_id" : "55903",
  "longitude" : "149.215826414948",
  "latitude" : "-35.3071131880582",
  "extracted" : "20150601",
  "district" : "MAJURA",
  "type" : "HOMESTEAD, OUTSTATION, OUTCAMP, WOOLSHED"
}
, {
  "name" : "AFP DRIVER TRAINING",
  "feature_id" : "55848",
  "longitude" : "149.194760148314",
  "latitude" : "-35.243891382753",
  "extracted" : "20150601",
  "district" : "MAJURA",
  "type" : "MISCELLANEOUS"
}
, {
  "division" : "NARRABUNDAH",
  "name" : "MADISON",
  "feature_id" : "55410",
  "longitude" : "149.149682203728",
  "latitude" : "-35.3391569637154",
  "extracted" : "20150601",
  "district" : "CANBERRA CENTRAL",
  "type" : "BUILDING"
}
, {
  "division" : "DEAKIN",
  "name" : "MINT OVAL",
  "feature_id" : "55415",
  "longitude" : "149.093007467112",
  "latitude" : "-35.3168322867454",
  "extracted" : "20150601",
  "district" : "CANBERRA CENTRAL",
  "type" : "MISCELLANEOUS"
}
, {
  "division" : "MACQUARIE",
  "name" : "KOORA COURT",
  "feature_id" : "56363",
  "longitude" : "149.059353077607",
  "latitude" : "-35.2485962523818",
  "extracted" : "20150601",
  "district" : "BELCONNEN",
  "type" : "BUILDING"
}
, {
  "name" : "BOGONG GAP",
  "feature_id" : "53052",
  "longitude" : "148.892576396604",
  "latitude" : "-35.7172022796531",
  "extracted" : "20150601",
  "district" : "COTTER RIVER",
  "type" : "PASS, PASSAGE, GAP, COL"
}
, {
  "name" : "LEES CREEK CAMP",
  "feature_id" : "53023",
  "longitude" : "148.863091665969",
  "latitude" : "-35.3476029023561",
  "extracted" : "20150601",
  "district" : "COTTER RIVER",
  "type" : "LOCALITY (UNBOUNDED),PLACE NAME,ROAD CORNER,ROAD BEND,CORNER"
}
, {
  "name" : "SHANNONS FLAT",
  "feature_id" : "53024",
  "longitude" : "148.853044014954",
  "latitude" : "-35.3090366738864",
  "extracted" : "20150601",
  "district" : "COTTER RIVER",
  "type" : "PLAIN, DOWNS, PRAIRIE, FLAT, HEATH"
}
, {
  "name" : "THOMPSONS CORNER",
  "feature_id" : "53025",
  "longitude" : "148.863767086339",
  "latitude" : "-35.3211833160706",
  "extracted" : "20150601",
  "district" : "COTTER RIVER",
  "type" : "LOCALITY (UNBOUNDED),PLACE NAME,ROAD CORNER,ROAD BEND,CORNER"
}
, {
  "name" : "BENDORA DAM",
  "feature_id" : "53028",
  "longitude" : "148.82439623569",
  "latitude" : "-35.4625631305723",
  "extracted" : "20150601",
  "district" : "COTTER RIVER",
  "type" : "DAM, WEIR, CATCHMENT, BARRAGE"
}
, {
  "name" : "CORIN DAM",
  "feature_id" : "53030",
  "longitude" : "148.831079982442",
  "latitude" : "-35.5654128688032",
  "extracted" : "20150601",
  "district" : "COTTER RIVER",
  "type" : "DAM, WEIR, CATCHMENT, BARRAGE"
}
, {
  "name" : "FREDDYS FLAT",
  "feature_id" : "53032",
  "longitude" : "148.821470916076",
  "latitude" : "-35.6110508933897",
  "extracted" : "20150601",
  "district" : "COTTER RIVER",
  "type" : "PLAIN, DOWNS, PRAIRIE, FLAT, HEATH"
}
, {
  "name" : "HANGING FLAT",
  "feature_id" : "53033",
  "longitude" : "148.803241158312",
  "latitude" : "-35.5724915186198",
  "extracted" : "20150601",
  "district" : "COTTER RIVER",
  "type" : "PLAIN, DOWNS, PRAIRIE, FLAT, HEATH"
}
, {
  "name" : "SNOWY FLATS",
  "feature_id" : "53034",
  "longitude" : "148.78476246368",
  "latitude" : "-35.5610917758338",
  "extracted" : "20150601",
  "district" : "COTTER RIVER",
  "type" : "PLAIN, DOWNS, PRAIRIE, FLAT, HEATH"
}
, {
  "name" : "GALLIPOLI FLATS",
  "feature_id" : "53035",
  "longitude" : "148.815340007259",
  "latitude" : "-35.5877124727412",
  "extracted" : "20150601",
  "district" : "COTTER RIVER",
  "type" : "PLAIN, DOWNS, PRAIRIE, FLAT, HEATH"
}
, {
  "name" : "CLEAR HILLS",
  "feature_id" : "53036",
  "longitude" : "148.864534555815",
  "latitude" : "-35.5566129224568",
  "extracted" : "20150601",
  "district" : "COTTER RIVER",
  "type" : "HILL, KNOLL, KNOB, MESA, SUGARLOAF, LOOKOUT"
}
, {
  "name" : "BLACKFELLOWS GAP",
  "feature_id" : "53037",
  "longitude" : "148.78199459001",
  "latitude" : "-35.5959054854236",
  "extracted" : "20150601",
  "district" : "COTTER RIVER",
  "type" : "PASS, PASSAGE, GAP, COL"
}
, {
  "name" : "ROLLING GROUND GAP",
  "feature_id" : "53038",
  "longitude" : "148.778757651045",
  "latitude" : "-35.6129225848583",
  "extracted" : "20150601",
  "district" : "COTTER RIVER",
  "type" : "PASS, PASSAGE, GAP, COL"
}
, {
  "name" : "DEAD HORSE GAP",
  "feature_id" : "53040",
  "longitude" : "148.772409668466",
  "latitude" : "-35.6433078212851",
  "extracted" : "20150601",
  "district" : "COTTER RIVER",
  "type" : "PASS, PASSAGE, GAP, COL"
}
, {
  "name" : "BLACK SALLEE FLAT",
  "feature_id" : "53041",
  "longitude" : "148.823280890646",
  "latitude" : "-35.6281029440983",
  "extracted" : "20150601",
  "district" : "COTTER RIVER",
  "type" : "PLAIN, DOWNS, PRAIRIE, FLAT, HEATH"
}
, {
  "name" : "LITTLE BIMBERI GAP",
  "feature_id" : "53042",
  "longitude" : "148.804726623394",
  "latitude" : "-35.6720687199021",
  "extracted" : "20150601",
  "district" : "COTTER RIVER",
  "type" : "PASS, PASSAGE, GAP, COL"
}
, {
  "name" : "BIMBERI GAP",
  "feature_id" : "53043",
  "longitude" : "148.777879985028",
  "latitude" : "-35.6554883468531",
  "extracted" : "20150601",
  "district" : "COTTER RIVER",
  "type" : "PASS, PASSAGE, GAP, COL"
}
, {
  "name" : "YAOUK GAP",
  "feature_id" : "53044",
  "longitude" : "148.821831018146",
  "latitude" : "-35.7196148069681",
  "extracted" : "20150601",
  "district" : "COTTER RIVER",
  "type" : "PASS, PASSAGE, GAP, COL"
}
, {
  "name" : "MURRAYS GAP",
  "feature_id" : "53045",
  "longitude" : "148.79760711069",
  "latitude" : "-35.6823630990289",
  "extracted" : "20150601",
  "district" : "COTTER RIVER",
  "type" : "PASS, PASSAGE, GAP, COL"
}
, {
  "name" : "BIG CREAMY FLATS",
  "feature_id" : "53047",
  "longitude" : "148.89243415583",
  "latitude" : "-35.6842025737867",
  "extracted" : "20150601",
  "district" : "COTTER RIVER",
  "type" : "PLAIN, DOWNS, PRAIRIE, FLAT, HEATH"
}
, {
  "name" : "UPPER COTTER FLATS",
  "feature_id" : "53049",
  "longitude" : "148.837044083953",
  "latitude" : "-35.6774209159857",
  "extracted" : "20150601",
  "district" : "COTTER RIVER",
  "type" : "PLAIN, DOWNS, PRAIRIE, FLAT, HEATH"
}
, {
  "name" : "ROLLEYS FLATS",
  "feature_id" : "53050",
  "longitude" : "148.836405821555",
  "latitude" : "-35.6954368535841",
  "extracted" : "20150601",
  "district" : "COTTER RIVER",
  "type" : "PLAIN, DOWNS, PRAIRIE, FLAT, HEATH"
}
, {
  "name" : "EIGHTY ACRES",
  "feature_id" : "53051",
  "longitude" : "148.867792869508",
  "latitude" : "-35.605715375575",
  "extracted" : "20150601",
  "district" : "COTTER RIVER",
  "type" : "PLAIN, DOWNS, PRAIRIE, FLAT, HEATH"
}
, {
  "division" : "AINSLIE",
  "name" : "PARK",
  "feature_id" : "52546",
  "longitude" : "149.148016973185",
  "latitude" : "-35.2606196248783",
  "extracted" : "20150601",
  "district" : "CANBERRA CENTRAL",
  "type" : "RESERVE,PARK,NATIONAL PARK,CONSERVATION PARK,COMMON"
}
, {
  "division" : "AINSLIE",
  "name" : "PARK",
  "feature_id" : "52547",
  "longitude" : "149.145516990219",
  "latitude" : "-35.26242156175",
  "extracted" : "20150601",
  "district" : "CANBERRA CENTRAL",
  "type" : "RESERVE,PARK,NATIONAL PARK,CONSERVATION PARK,COMMON"
}
, {
  "division" : "AINSLIE",
  "name" : "PARK",
  "feature_id" : "52548",
  "longitude" : "149.142314273678",
  "latitude" : "-35.2599885706267",
  "extracted" : "20150601",
  "district" : "CANBERRA CENTRAL",
  "type" : "RESERVE,PARK,NATIONAL PARK,CONSERVATION PARK,COMMON"
}
, {
  "division" : "AINSLIE",
  "name" : "PARK",
  "feature_id" : "52549",
  "longitude" : "149.145663075283",
  "latitude" : "-35.2602743933711",
  "extracted" : "20150601",
  "district" : "CANBERRA CENTRAL",
  "type" : "RESERVE,PARK,NATIONAL PARK,CONSERVATION PARK,COMMON"
}
, {
  "division" : "AINSLIE",
  "name" : "PARK",
  "feature_id" : "52550",
  "longitude" : "149.142028758811",
  "latitude" : "-35.2635756494173",
  "extracted" : "20150601",
  "district" : "CANBERRA CENTRAL",
  "type" : "RESERVE,PARK,NATIONAL PARK,CONSERVATION PARK,COMMON"
}
, {
  "division" : "AINSLIE",
  "name" : "PARK",
  "feature_id" : "52551",
  "longitude" : "149.145237041586",
  "latitude" : "-35.2641373180176",
  "extracted" : "20150601",
  "district" : "CANBERRA CENTRAL",
  "type" : "RESERVE,PARK,NATIONAL PARK,CONSERVATION PARK,COMMON"
}
, {
  "division" : "AINSLIE",
  "name" : "PARK",
  "feature_id" : "52553",
  "longitude" : "149.144782469099",
  "latitude" : "-35.2675400133556",
  "extracted" : "20150601",
  "district" : "CANBERRA CENTRAL",
  "type" : "RESERVE,PARK,NATIONAL PARK,CONSERVATION PARK,COMMON"
}
, {
  "division" : "AINSLIE",
  "name" : "CORROBOREE PARK",
  "feature_id" : "52554",
  "longitude" : "149.142021525519",
  "latitude" : "-35.2689659446236",
  "extracted" : "20150601",
  "district" : "CANBERRA CENTRAL",
  "type" : "RESERVE,PARK,NATIONAL PARK,CONSERVATION PARK,COMMON"
}
, {
  "division" : "AINSLIE",
  "name" : "BELEURA COURT",
  "feature_id" : "52555",
  "longitude" : "149.142742839398",
  "latitude" : "-35.2648401535513",
  "extracted" : "20150601",
  "district" : "CANBERRA CENTRAL",
  "type" : "BUILDING"
}
, {
  "division" : "AINSLIE",
  "name" : "LIMESTONE GARDENS",
  "feature_id" : "52556",
  "longitude" : "149.137904843512",
  "latitude" : "-35.2648314152333",
  "extracted" : "20150601",
  "district" : "CANBERRA CENTRAL",
  "type" : "BUILDING"
}
, {
  "division" : "AINSLIE",
  "name" : "ANGAS COURT",
  "feature_id" : "52557",
  "longitude" : "149.139234020085",
  "latitude" : "-35.2633097066474",
  "extracted" : "20150601",
  "district" : "CANBERRA CENTRAL",
  "type" : "BUILDING"
}
, {
  "division" : "AINSLIE",
  "name" : "WAIRUNA COURT",
  "feature_id" : "52558",
  "longitude" : "149.142359007492",
  "latitude" : "-35.2595880783342",
  "extracted" : "20150601",
  "district" : "CANBERRA CENTRAL",
  "type" : "BUILDING"
}
, {
  "division" : "AINSLIE",
  "name" : "SCOUT HALL",
  "feature_id" : "52524",
  "longitude" : "149.147607340199",
  "latitude" : "-35.2624766334015",
  "extracted" : "20150601",
  "district" : "CANBERRA CENTRAL",
  "type" : "BUILDING"
}
, {
  "division" : "REID",
  "name" : "ARGYLE SQUARE",
  "feature_id" : "52489",
  "longitude" : "149.137776958574",
  "latitude" : "-35.2790137888082",
  "extracted" : "20150601",
  "district" : "CANBERRA CENTRAL",
  "type" : "BUILDING"
}
, {
  "division" : "REID",
  "name" : "KANANGRA COURT",
  "feature_id" : "52490",
  "longitude" : "149.142644203908",
  "latitude" : "-35.2773239273654",
  "extracted" : "20150601",
  "district" : "CANBERRA CENTRAL",
  "type" : "BUILDING"
}
, {
  "division" : "REID",
  "name" : "MONTEREY APARTMENTS",
  "feature_id" : "52491",
  "longitude" : "149.137901872075",
  "latitude" : "-35.2819502807852",
  "extracted" : "20150601",
  "district" : "CANBERRA CENTRAL",
  "type" : "BUILDING"
}
, {
  "division" : "REID",
  "name" : "BEGA COURTS",
  "feature_id" : "52492",
  "longitude" : "149.136771210177",
  "latitude" : "-35.2803916793763",
  "extracted" : "20150601",
  "district" : "CANBERRA CENTRAL",
  "type" : "BUILDING"
}
, {
  "division" : "REID",
  "name" : "ARGYLE EXECUTIVE APARTMENTS",
  "feature_id" : "52493",
  "longitude" : "149.137639672318",
  "latitude" : "-35.2804445130742",
  "extracted" : "20150601",
  "district" : "CANBERRA CENTRAL",
  "type" : "BUILDING"
}
, {
  "division" : "REID",
  "name" : "JERILDERIE COURT",
  "feature_id" : "52494",
  "longitude" : "149.139729030027",
  "latitude" : "-35.2785383674658",
  "extracted" : "20150601",
  "district" : "CANBERRA CENTRAL",
  "type" : "BUILDING"
}
, {
  "division" : "RICHARDSON",
  "name" : "SHOPS",
  "feature_id" : "52495",
  "longitude" : "149.115568555107",
  "latitude" : "-35.4274714314461",
  "extracted" : "20150601",
  "district" : "TUGGERANONG",
  "type" : "BUILDING"
}
, {
  "division" : "RICHARDSON",
  "name" : "CHILDCARE CENTRE",
  "feature_id" : "52496",
  "longitude" : "149.114299389244",
  "latitude" : "-35.4277714065711",
  "extracted" : "20150601",
  "district" : "TUGGERANONG",
  "type" : "BUILDING"
}
, {
  "division" : "RICHARDSON",
  "name" : "SCOUT HALL",
  "feature_id" : "52497",
  "longitude" : "149.110704693814",
  "latitude" : "-35.4278927876895",
  "extracted" : "20150601",
  "district" : "TUGGERANONG",
  "type" : "BUILDING"
}
, {
  "division" : "RICHARDSON",
  "name" : "COMMUNITY HOUSE",
  "feature_id" : "52498",
  "longitude" : "149.115593882899",
  "latitude" : "-35.4298308037456",
  "extracted" : "20150601",
  "district" : "TUGGERANONG",
  "type" : "BUILDING"
}
, {
  "division" : "RICHARDSON",
  "name" : "PRE-SCHOOL",
  "feature_id" : "52499",
  "longitude" : "149.114706293288",
  "latitude" : "-35.4285113751082",
  "extracted" : "20150601",
  "district" : "TUGGERANONG",
  "type" : "BUILDING"
}
, {
  "division" : "RICHARDSON",
  "name" : "RICHARDSON PRIMARY SCHOOL",
  "feature_id" : "52500",
  "longitude" : "149.114603878192",
  "latitude" : "-35.4295626869666",
  "extracted" : "20150601",
  "district" : "TUGGERANONG",
  "type" : "BUILDING"
}
, {
  "division" : "RICHARDSON",
  "name" : "MEDICAL CENTRE",
  "feature_id" : "52501",
  "longitude" : "149.115229983278",
  "latitude" : "-35.4278428243697",
  "extracted" : "20150601",
  "district" : "TUGGERANONG",
  "type" : "BUILDING"
}
, {
  "division" : "RICHARDSON",
  "name" : "OVAL",
  "feature_id" : "52502",
  "longitude" : "149.115662025658",
  "latitude" : "-35.4287671194359",
  "extracted" : "20150601",
  "district" : "TUGGERANONG",
  "type" : "MISCELLANEOUS"
}
, {
  "division" : "RICHARDSON",
  "name" : "FLOODWAY",
  "feature_id" : "52503",
  "longitude" : "149.110116319706",
  "latitude" : "-35.4291886745465",
  "extracted" : "20150601",
  "district" : "TUGGERANONG",
  "type" : "RESERVE,PARK,NATIONAL PARK,CONSERVATION PARK,COMMON"
}
, {
  "division" : "RICHARDSON",
  "name" : "TUGGERANONG HOMESTEAD",
  "feature_id" : "52504",
  "longitude" : "149.110520140279",
  "latitude" : "-35.4309903406738",
  "extracted" : "20150601",
  "district" : "TUGGERANONG",
  "type" : "HOMESTEAD, OUTSTATION, OUTCAMP, WOOLSHED"
}
, {
  "division" : "RICHARDSON",
  "name" : "MOUNTAIN TERRACE ESTATE",
  "feature_id" : "52505",
  "longitude" : "149.12521530196",
  "latitude" : "-35.432967564021",
  "extracted" : "20150601",
  "district" : "TUGGERANONG",
  "type" : "BUILDING"
}
, {
  "division" : "RICHARDSON",
  "name" : "THE RIDGE",
  "feature_id" : "52506",
  "longitude" : "149.123430675099",
  "latitude" : "-35.4338293209655",
  "extracted" : "20150601",
  "district" : "TUGGERANONG",
  "type" : "BUILDING"
}
, {
  "division" : "DICKSON",
  "name" : "DICKSON FLATS",
  "feature_id" : "54320",
  "longitude" : "149.133731263241",
  "latitude" : "-35.2542850403597",
  "extracted" : "20150601",
  "district" : "CANBERRA CENTRAL",
  "type" : "BUILDING"
}
, {
  "division" : "DUFFY",
  "name" : "FORREST PARK",
  "feature_id" : "53941",
  "longitude" : "149.031272797579",
  "latitude" : "-35.337515948181",
  "extracted" : "20150601",
  "district" : "WESTON CREEK",
  "type" : "BUILDING"
}
, {
  "division" : "PARKES",
  "name" : "GALLIPOLI REACH",
  "feature_id" : "53953",
  "longitude" : "149.136390215158",
  "latitude" : "-35.2950073457528",
  "extracted" : "20150601",
  "district" : "CANBERRA CENTRAL",
  "type" : "REACH, ARM"
}
, {
  "division" : "KALEEN",
  "name" : "HIGH SCHOOL",
  "feature_id" : "54000",
  "longitude" : "149.101990320833",
  "latitude" : "-35.2257607194215",
  "extracted" : "20150601",
  "district" : "BELCONNEN",
  "type" : "BUILDING"
}
, {
  "division" : "KALEEN",
  "name" : "PRE-SCHOOL",
  "feature_id" : "54001",
  "longitude" : "149.112239621676",
  "latitude" : "-35.2246916510529",
  "extracted" : "20150601",
  "district" : "BELCONNEN",
  "type" : "BUILDING"
}
, {
  "division" : "LATHAM",
  "name" : "PRE-SCHOOL",
  "feature_id" : "54002",
  "longitude" : "149.033330527802",
  "latitude" : "-35.2184343112462",
  "extracted" : "20150601",
  "district" : "BELCONNEN",
  "type" : "BUILDING"
}
, {
  "division" : "MACQUARIE",
  "name" : "PRE-SCHOOL",
  "feature_id" : "54005",
  "longitude" : "149.059313749514",
  "latitude" : "-35.2501785613025",
  "extracted" : "20150601",
  "district" : "BELCONNEN",
  "type" : "BUILDING"
}
, {
  "name" : "BLUE RIDGE",
  "feature_id" : "53021",
  "longitude" : "148.854383466624",
  "latitude" : "-35.284511722606",
  "extracted" : "20150601",
  "district" : "COREE",
  "type" : "RIDGE, SADDLE"
}
, {
  "name" : "PEGASUS RIDING SCHOOL",
  "feature_id" : "52993",
  "longitude" : "149.015967995956",
  "latitude" : "-35.2330708803137",
  "extracted" : "20150601",
  "district" : "BELCONNEN",
  "type" : "BUILDING"
}
, {
  "name" : "POLO CLUB",
  "feature_id" : "52994",
  "longitude" : "149.150908287225",
  "latitude" : "-35.2233881578097",
  "extracted" : "20150601",
  "district" : "GUNGAHLIN",
  "type" : "BUILDING"
}
, {
  "name" : "BELCONNEN DOG OBEDIENCE CLUB",
  "feature_id" : "52995",
  "longitude" : "149.145999398876",
  "latitude" : "-35.2201769139064",
  "extracted" : "20150601",
  "district" : "GUNGAHLIN",
  "type" : "BUILDING"
}
, {
  "name" : "CANBERRA NATIONAL PISTOL CLUB",
  "feature_id" : "52996",
  "longitude" : "149.164535390816",
  "latitude" : "-35.2828926665514",
  "extracted" : "20150601",
  "district" : "MAJURA",
  "type" : "BUILDING"
}
, {
  "name" : "BIRRIGAI OUTDOOR SCHOOL",
  "feature_id" : "52998",
  "longitude" : "148.957756340557",
  "latitude" : "-35.4482886567409",
  "extracted" : "20150601",
  "district" : "PADDYS RIVER",
  "type" : "BUILDING"
}
, {
  "division" : "HALL",
  "name" : "TENNIS COURT",
  "feature_id" : "53000",
  "longitude" : "149.073105341643",
  "latitude" : "-35.170390477531",
  "extracted" : "20150601",
  "district" : "HALL",
  "type" : "MISCELLANEOUS"
}
, {
  "division" : "CANBERRA AIRPORT",
  "name" : "FAIRBAIRN RAAF BASE",
  "feature_id" : "53001",
  "longitude" : "149.198446941263",
  "latitude" : "-35.3028986441882",
  "extracted" : "20150601",
  "district" : "MAJURA",
  "type" : "MISCELLANEOUS"
}
, {
  "name" : "ROYAL MILITARY COLLEGE FIRING RANGE",
  "feature_id" : "53002",
  "longitude" : "149.246683440251",
  "latitude" : "-35.2829877388472",
  "extracted" : "20150601",
  "district" : "MAJURA",
  "type" : "MISCELLANEOUS"
}
, {
  "name" : "JOINT SERVICE STAFF COLLEGE",
  "feature_id" : "53003",
  "longitude" : "149.058386634819",
  "latitude" : "-35.320299498496",
  "extracted" : "20150601",
  "district" : "WESTON CREEK",
  "type" : "BUILDING"
}
, {
  "name" : "HMAS HARMAN",
  "feature_id" : "53004",
  "longitude" : "149.182737923098",
  "latitude" : "-35.3619582308765",
  "extracted" : "20150601",
  "district" : "JERRABOMBERRA",
  "type" : "MISCELLANEOUS"
}
, {
  "name" : "HMAS HARMAN",
  "feature_id" : "53005",
  "longitude" : "149.189201834213",
  "latitude" : "-35.3544778284233",
  "extracted" : "20150601",
  "district" : "JERRABOMBERRA",
  "type" : "MISCELLANEOUS"
}
, {
  "name" : "HMAS HARMAN",
  "feature_id" : "53006",
  "longitude" : "149.199634797934",
  "latitude" : "-35.3470715542163",
  "extracted" : "20150601",
  "district" : "JERRABOMBERRA",
  "type" : "MISCELLANEOUS"
}
, {
  "name" : "PINE RIDGE",
  "feature_id" : "53009",
  "longitude" : "149.00357052893",
  "latitude" : "-35.2310124315391",
  "extracted" : "20150601",
  "district" : "BELCONNEN",
  "type" : "HOMESTEAD, OUTSTATION, OUTCAMP, WOOLSHED"
}
, {
  "name" : "SHEPHERDS LOOKOUT",
  "feature_id" : "53011",
  "longitude" : "148.987799732103",
  "latitude" : "-35.2509954874444",
  "extracted" : "20150601",
  "district" : "BELCONNEN",
  "type" : "HILL, KNOLL, KNOB, MESA, SUGARLOAF, LOOKOUT"
}
, {
  "name" : "ARANDA BUSHLAND",
  "feature_id" : "53017",
  "longitude" : "149.082032624676",
  "latitude" : "-35.2648749823846",
  "extracted" : "20150601",
  "district" : "BELCONNEN",
  "type" : "RESERVE,PARK,NATIONAL PARK,CONSERVATION PARK,COMMON"
}
, {
  "name" : "ROCKY CROSSING",
  "feature_id" : "53018",
  "longitude" : "149.004110277361",
  "latitude" : "-35.6437120114533",
  "extracted" : "20150601",
  "district" : "BOOTH",
  "type" : "HOMESTEAD, OUTSTATION, OUTCAMP, WOOLSHED"
}
, {
  "name" : "BRANDY FLAT",
  "feature_id" : "53019",
  "longitude" : "149.020263157568",
  "latitude" : "-35.7146669163185",
  "extracted" : "20150601",
  "district" : "BOOTH",
  "type" : "PLAIN, DOWNS, PRAIRIE, FLAT, HEATH"
}
, {
  "name" : "PADOVANS CROSSING",
  "feature_id" : "53020",
  "longitude" : "148.888039184057",
  "latitude" : "-35.3282237837488",
  "extracted" : "20150601",
  "district" : "COREE",
  "type" : "FORD, CROSSING"
}
, {
  "division" : "WESTON",
  "name" : "ORANA SCHOOL",
  "feature_id" : "52960",
  "longitude" : "149.059614705163",
  "latitude" : "-35.326622239174",
  "extracted" : "20150601",
  "district" : "WESTON CREEK",
  "type" : "BUILDING"
}
, {
  "division" : "RICHARDSON",
  "name" : "FULLERTON COURT",
  "feature_id" : "52507",
  "longitude" : "149.12245373159",
  "latitude" : "-35.4346401533667",
  "extracted" : "20150601",
  "district" : "TUGGERANONG",
  "type" : "BUILDING"
}
, {
  "division" : "AINSLIE",
  "name" : "FOOTBALL CLUB",
  "feature_id" : "52508",
  "longitude" : "149.13872971095",
  "latitude" : "-35.2615690580804",
  "extracted" : "20150601",
  "district" : "CANBERRA CENTRAL",
  "type" : "BUILDING"
}
, {
  "division" : "AINSLIE",
  "name" : "SHOPS",
  "feature_id" : "52510",
  "longitude" : "149.145180711956",
  "latitude" : "-35.2622181568829",
  "extracted" : "20150601",
  "district" : "CANBERRA CENTRAL",
  "type" : "BUILDING"
}
, {
  "division" : "AINSLIE",
  "name" : "AGED PERSONS FLATS",
  "feature_id" : "52511",
  "longitude" : "149.145033676292",
  "latitude" : "-35.27355702921",
  "extracted" : "20150601",
  "district" : "CANBERRA CENTRAL",
  "type" : "BUILDING"
}
, {
  "division" : "AINSLIE",
  "name" : "ROSEBANK COURT",
  "feature_id" : "52513",
  "longitude" : "149.145995404071",
  "latitude" : "-35.2645957431736",
  "extracted" : "20150601",
  "district" : "CANBERRA CENTRAL",
  "type" : "BUILDING"
}
, {
  "division" : "AINSLIE",
  "name" : "GOODWIN GARDENS",
  "feature_id" : "52516",
  "longitude" : "149.140359052199",
  "latitude" : "-35.2610629589412",
  "extracted" : "20150601",
  "district" : "CANBERRA CENTRAL",
  "type" : "BUILDING"
}
, {
  "division" : "AINSLIE",
  "name" : "CHILDCARE CENTRE",
  "feature_id" : "52517",
  "longitude" : "149.139193785737",
  "latitude" : "-35.2643752253686",
  "extracted" : "20150601",
  "district" : "CANBERRA CENTRAL",
  "type" : "BUILDING"
}
, {
  "division" : "AINSLIE",
  "name" : "C OF E",
  "feature_id" : "52518",
  "longitude" : "149.139289500402",
  "latitude" : "-35.2647359677419",
  "extracted" : "20150601",
  "district" : "CANBERRA CENTRAL",
  "type" : "BUILDING"
}
, {
  "division" : "AINSLIE",
  "name" : "ALL SAINTS CHURCH",
  "feature_id" : "52519",
  "longitude" : "149.139313882171",
  "latitude" : "-35.2649367082794",
  "extracted" : "20150601",
  "district" : "CANBERRA CENTRAL",
  "type" : "BUILDING"
}
, {
  "division" : "AINSLIE",
  "name" : "CHURCH OF CHRIST",
  "feature_id" : "52520",
  "longitude" : "149.139878251962",
  "latitude" : "-35.26896631726",
  "extracted" : "20150601",
  "district" : "CANBERRA CENTRAL",
  "type" : "BUILDING"
}
, {
  "division" : "AINSLIE",
  "name" : "GUIDE HALL",
  "feature_id" : "52522",
  "longitude" : "149.143840905011",
  "latitude" : "-35.2705380052439",
  "extracted" : "20150601",
  "district" : "CANBERRA CENTRAL",
  "type" : "BUILDING"
}
, {
  "division" : "RED HILL",
  "name" : "OVAL",
  "feature_id" : "52455",
  "longitude" : "149.127275542204",
  "latitude" : "-35.3298814717165",
  "extracted" : "20150601",
  "district" : "CANBERRA CENTRAL",
  "type" : "MISCELLANEOUS"
}
, {
  "division" : "RED HILL",
  "name" : "PARK",
  "feature_id" : "52456",
  "longitude" : "149.124825706206",
  "latitude" : "-35.3337255489207",
  "extracted" : "20150601",
  "district" : "CANBERRA CENTRAL",
  "type" : "RESERVE,PARK,NATIONAL PARK,CONSERVATION PARK,COMMON"
}
, {
  "division" : "RED HILL",
  "name" : "VOYAGER PARK",
  "feature_id" : "52457",
  "longitude" : "149.134603878215",
  "latitude" : "-35.3384701618713",
  "extracted" : "20150601",
  "district" : "CANBERRA CENTRAL",
  "type" : "RESERVE,PARK,NATIONAL PARK,CONSERVATION PARK,COMMON"
}
, {
  "division" : "RED HILL",
  "name" : "PARK",
  "feature_id" : "52459",
  "longitude" : "149.126809012353",
  "latitude" : "-35.3422431053513",
  "extracted" : "20150601",
  "district" : "CANBERRA CENTRAL",
  "type" : "RESERVE,PARK,NATIONAL PARK,CONSERVATION PARK,COMMON"
}
, {
  "division" : "RED HILL",
  "name" : "PARK",
  "feature_id" : "52460",
  "longitude" : "149.130424549048",
  "latitude" : "-35.3420890969334",
  "extracted" : "20150601",
  "district" : "CANBERRA CENTRAL",
  "type" : "RESERVE,PARK,NATIONAL PARK,CONSERVATION PARK,COMMON"
}
, {
  "division" : "RED HILL",
  "name" : "PARK",
  "feature_id" : "52461",
  "longitude" : "149.124578450807",
  "latitude" : "-35.326028766113",
  "extracted" : "20150601",
  "district" : "CANBERRA CENTRAL",
  "type" : "RESERVE,PARK,NATIONAL PARK,CONSERVATION PARK,COMMON"
}
, {
  "division" : "RED HILL",
  "name" : "CAREY GARDENS",
  "feature_id" : "52462",
  "longitude" : "149.13384367744",
  "latitude" : "-35.3371675361311",
  "extracted" : "20150601",
  "district" : "CANBERRA CENTRAL",
  "type" : "BUILDING"
}
, {
  "division" : "RED HILL",
  "name" : "CALTHORPES HOUSE",
  "feature_id" : "52463",
  "longitude" : "149.12119891303",
  "latitude" : "-35.3266319911862",
  "extracted" : "20150601",
  "district" : "CANBERRA CENTRAL",
  "type" : "BUILDING"
}
, {
  "division" : "RED HILL",
  "name" : "ST DAVIDS CLOSE",
  "feature_id" : "52464",
  "longitude" : "149.133700124548",
  "latitude" : "-35.3406011080969",
  "extracted" : "20150601",
  "district" : "CANBERRA CENTRAL",
  "type" : "BUILDING"
}
, {
  "division" : "RED HILL",
  "name" : "RED HILL FLATS",
  "feature_id" : "52465",
  "longitude" : "149.130291632407",
  "latitude" : "-35.3413834964466",
  "extracted" : "20150601",
  "district" : "CANBERRA CENTRAL",
  "type" : "BUILDING"
}
, {
  "division" : "RED HILL",
  "name" : "RED HILL FLATS",
  "feature_id" : "52466",
  "longitude" : "149.131376833689",
  "latitude" : "-35.3420183718638",
  "extracted" : "20150601",
  "district" : "CANBERRA CENTRAL",
  "type" : "BUILDING"
}
, {
  "division" : "RED HILL",
  "name" : "JAMES COURT",
  "feature_id" : "52467",
  "longitude" : "149.132326049591",
  "latitude" : "-35.3412414395208",
  "extracted" : "20150601",
  "district" : "CANBERRA CENTRAL",
  "type" : "BUILDING"
}
, {
  "division" : "REID",
  "name" : "CHILDCARE CENTRE",
  "feature_id" : "52469",
  "longitude" : "149.139399828572",
  "latitude" : "-35.2861731070073",
  "extracted" : "20150601",
  "district" : "CANBERRA CENTRAL",
  "type" : "BUILDING"
}
, {
  "division" : "REID",
  "name" : "ST PETERS LUTHERAN CHURCH",
  "feature_id" : "52470",
  "longitude" : "149.137155253388",
  "latitude" : "-35.2815884856582",
  "extracted" : "20150601",
  "district" : "CANBERRA CENTRAL",
  "type" : "BUILDING"
}
, {
  "division" : "REID",
  "name" : "CANBERRA KOREAN UNITING CHURCH",
  "feature_id" : "52471",
  "longitude" : "149.140393600068",
  "latitude" : "-35.2803911239995",
  "extracted" : "20150601",
  "district" : "CANBERRA CENTRAL",
  "type" : "BUILDING"
}
, {
  "division" : "BRADDON",
  "name" : "ALLAWAH COURTS",
  "feature_id" : "54285",
  "longitude" : "149.135400118213",
  "latitude" : "-35.2779616289495",
  "extracted" : "20150601",
  "district" : "CANBERRA CENTRAL",
  "type" : "BUILDING"
}
, {
  "division" : "BRADDON",
  "name" : "CURRONG APARTMENTS",
  "feature_id" : "54286",
  "longitude" : "149.135825569137",
  "latitude" : "-35.2776196886277",
  "extracted" : "20150601",
  "district" : "CANBERRA CENTRAL",
  "type" : "BUILDING"
}
, {
  "division" : "AINSLIE",
  "name" : "DENBIGH COURT",
  "feature_id" : "54220",
  "longitude" : "149.144596210822",
  "latitude" : "-35.2581794494787",
  "extracted" : "20150601",
  "district" : "CANBERRA CENTRAL",
  "type" : "MISCELLANEOUS"
}
, {
  "division" : "MAWSON",
  "name" : "PRE-SCHOOL",
  "feature_id" : "54007",
  "longitude" : "149.097961660234",
  "latitude" : "-35.358439628886",
  "extracted" : "20150601",
  "district" : "WODEN VALLEY",
  "type" : "BUILDING"
}
, {
  "division" : "MAWSON",
  "name" : "MAWSON PRIMARY SCHOOL &",
  "feature_id" : "54008",
  "longitude" : "149.097977634077",
  "latitude" : "-35.3582473782508",
  "extracted" : "20150601",
  "district" : "WODEN VALLEY",
  "type" : "BUILDING"
}
, {
  "division" : "MELBA",
  "name" : "PRE-SCHOOL",
  "feature_id" : "54011",
  "longitude" : "149.055438511928",
  "latitude" : "-35.2092787089841",
  "extracted" : "20150601",
  "district" : "BELCONNEN",
  "type" : "BUILDING"
}
, {
  "division" : "MONASH",
  "name" : "PRE-SCHOOL",
  "feature_id" : "54013",
  "longitude" : "149.089829013985",
  "latitude" : "-35.4136870137271",
  "extracted" : "20150601",
  "district" : "TUGGERANONG",
  "type" : "BUILDING"
}
, {
  "division" : "MELBA",
  "name" : "MT ROGERS COMMUNITY SCHOOL",
  "feature_id" : "54014",
  "longitude" : "149.055536287088",
  "latitude" : "-35.2085783147814",
  "extracted" : "20150601",
  "district" : "BELCONNEN",
  "type" : "BUILDING"
}
, {
  "division" : "KAMBAH",
  "name" : "MT TAYLOR PRIMARY SCHOOL",
  "feature_id" : "54015",
  "longitude" : "149.063881918605",
  "latitude" : "-35.3782478628931",
  "extracted" : "20150601",
  "district" : "TUGGERANONG",
  "type" : "BUILDING"
}
, {
  "division" : "O'CONNOR",
  "name" : "YOUTH HOSTEL",
  "feature_id" : "54021",
  "longitude" : "149.112506282924",
  "latitude" : "-35.2521666225648",
  "extracted" : "20150601",
  "district" : "CANBERRA CENTRAL",
  "type" : "BUILDING"
}
, {
  "division" : "HOLT",
  "name" : "PRE-SCHOOL",
  "feature_id" : "53994",
  "longitude" : "149.011702218509",
  "latitude" : "-35.2233601210288",
  "extracted" : "20150601",
  "district" : "BELCONNEN",
  "type" : "BUILDING"
}
, {
  "division" : "PEARCE",
  "name" : "PRIMARY SCHOOL",
  "feature_id" : "54029",
  "longitude" : "149.083937029822",
  "latitude" : "-35.3667090012144",
  "extracted" : "20150601",
  "district" : "WODEN VALLEY",
  "type" : "BUILDING"
}
, {
  "division" : "WESTON",
  "name" : "PRE-SCHOOL",
  "feature_id" : "52962",
  "longitude" : "149.055504045784",
  "latitude" : "-35.3381951712299",
  "extracted" : "20150601",
  "district" : "WESTON CREEK",
  "type" : "BUILDING"
}
, {
  "division" : "WESTON",
  "name" : "WESTON PRIMARY SCHOOL",
  "feature_id" : "52963",
  "longitude" : "149.055184910276",
  "latitude" : "-35.3373266464037",
  "extracted" : "20150601",
  "district" : "WESTON CREEK",
  "type" : "BUILDING"
}
, {
  "division" : "WESTON",
  "name" : "PLANT QUARANTINE CENTRE",
  "feature_id" : "52965",
  "longitude" : "149.058178942195",
  "latitude" : "-35.3298731945477",
  "extracted" : "20150601",
  "district" : "WESTON CREEK",
  "type" : "BUILDING"
}
, {
  "division" : "WESTON",
  "name" : "POLICE TRAINING CENTRE",
  "feature_id" : "52967",
  "longitude" : "149.056756453213",
  "latitude" : "-35.3293937173605",
  "extracted" : "20150601",
  "district" : "WESTON CREEK",
  "type" : "BUILDING"
}
, {
  "division" : "WESTON",
  "name" : "POLICE SERVICES CENTRE",
  "feature_id" : "52968",
  "longitude" : "149.055033472471",
  "latitude" : "-35.3293758606919",
  "extracted" : "20150601",
  "district" : "WESTON CREEK",
  "type" : "BUILDING"
}
, {
  "division" : "WESTON",
  "name" : "PO",
  "feature_id" : "52969",
  "longitude" : "149.051737241491",
  "latitude" : "-35.3408177094306",
  "extracted" : "20150601",
  "district" : "WESTON CREEK",
  "type" : "BUILDING"
}
, {
  "division" : "WESTON",
  "name" : "HEALTH CENTRE",
  "feature_id" : "52970",
  "longitude" : "149.054718654915",
  "latitude" : "-35.3420606944689",
  "extracted" : "20150601",
  "district" : "WESTON CREEK",
  "type" : "BUILDING"
}
, {
  "division" : "WESTON",
  "name" : "MIRINJANI NURSING HOME",
  "feature_id" : "52971",
  "longitude" : "149.057587143231",
  "latitude" : "-35.3417183328176",
  "extracted" : "20150601",
  "district" : "WESTON CREEK",
  "type" : "BUILDING"
}
, {
  "division" : "WESTON",
  "name" : "EABRAI LODGE",
  "feature_id" : "52972",
  "longitude" : "149.054825956281",
  "latitude" : "-35.3398902492576",
  "extracted" : "20150601",
  "district" : "WESTON CREEK",
  "type" : "BUILDING"
}
, {
  "division" : "WESTON",
  "name" : "OVAL",
  "feature_id" : "52973",
  "longitude" : "149.053568408282",
  "latitude" : "-35.3364964935088",
  "extracted" : "20150601",
  "district" : "WESTON CREEK",
  "type" : "MISCELLANEOUS"
}
, {
  "division" : "WESTON",
  "name" : "PINEVIEW",
  "feature_id" : "52974",
  "longitude" : "149.056846307513",
  "latitude" : "-35.3400210366668",
  "extracted" : "20150601",
  "district" : "WESTON CREEK",
  "type" : "BUILDING"
}
, {
  "division" : "WESTON",
  "name" : "BOOLOOMINBAH COURT",
  "feature_id" : "52975",
  "longitude" : "149.058496076485",
  "latitude" : "-35.3441423709985",
  "extracted" : "20150601",
  "district" : "WESTON CREEK",
  "type" : "BUILDING"
}
, {
  "division" : "WESTON",
  "name" : "MOUNTVIEW ESTATE",
  "feature_id" : "52976",
  "longitude" : "149.055901688966",
  "latitude" : "-35.3410521939273",
  "extracted" : "20150601",
  "district" : "WESTON CREEK",
  "type" : "BUILDING"
}
, {
  "division" : "WESTON",
  "name" : "WATLING COURT",
  "feature_id" : "52977",
  "longitude" : "149.052941907895",
  "latitude" : "-35.3435559019276",
  "extracted" : "20150601",
  "district" : "WESTON CREEK",
  "type" : "BUILDING"
}
, {
  "division" : "WESTON",
  "name" : "ARUNTA COURT",
  "feature_id" : "52978",
  "longitude" : "149.05654518097",
  "latitude" : "-35.344517690045",
  "extracted" : "20150601",
  "district" : "WESTON CREEK",
  "type" : "BUILDING"
}
, {
  "division" : "RUSSELL",
  "name" : "AUSTRALIAN DEFENCE FORCE HEADQUARTERS",
  "feature_id" : "52979",
  "longitude" : "149.1516391535",
  "latitude" : "-35.2986462497255",
  "extracted" : "20150601",
  "district" : "CANBERRA CENTRAL",
  "type" : "BUILDING"
}
, {
  "division" : "RUSSELL",
  "name" : "GOVERNMENT OFFICES DEFENCE GROUP",
  "feature_id" : "52980",
  "longitude" : "149.149555383634",
  "latitude" : "-35.2957118158294",
  "extracted" : "20150601",
  "district" : "CANBERRA CENTRAL",
  "type" : "BUILDING"
}
, {
  "division" : "RUSSELL",
  "name" : "FIELD MARSHAL SIR THOMAS BLAMEY SQUARE",
  "feature_id" : "52981",
  "longitude" : "149.151302402019",
  "latitude" : "-35.2977159917519",
  "extracted" : "20150601",
  "district" : "CANBERRA CENTRAL",
  "type" : "MISCELLANEOUS"
}
, {
  "division" : "RUSSELL",
  "name" : "AUSTRALIAN AMERICAN MEMORIAL",
  "feature_id" : "52982",
  "longitude" : "149.152054406433",
  "latitude" : "-35.2973580251484",
  "extracted" : "20150601",
  "district" : "CANBERRA CENTRAL",
  "type" : "MISCELLANEOUS"
}
, {
  "name" : "RSPCA ANIMAL REFUGE",
  "feature_id" : "52983",
  "longitude" : "149.05554087283",
  "latitude" : "-35.3212712322838",
  "extracted" : "20150601",
  "district" : "WESTON CREEK",
  "type" : "BUILDING"
}
, {
  "name" : "RIDING SCHOOL",
  "feature_id" : "52985",
  "longitude" : "149.070445102778",
  "latitude" : "-35.3126256784984",
  "extracted" : "20150601",
  "district" : "WESTON CREEK",
  "type" : "BUILDING"
}
, {
  "name" : "MOTEL",
  "feature_id" : "52986",
  "longitude" : "149.070807454578",
  "latitude" : "-35.3144844247177",
  "extracted" : "20150601",
  "district" : "WESTON CREEK",
  "type" : "BUILDING"
}
, {
  "name" : "PARKWOOD",
  "feature_id" : "52987",
  "longitude" : "148.987619998463",
  "latitude" : "-35.2062923884062",
  "extracted" : "20150601",
  "district" : "BELCONNEN",
  "type" : "BUILDING"
}
, {
  "division" : "PIALLIGO",
  "name" : "QUARRY & SAND PITS",
  "feature_id" : "52988",
  "longitude" : "149.204933821851",
  "latitude" : "-35.3346332472217",
  "extracted" : "20150601",
  "district" : "MAJURA",
  "type" : "MISCELLANEOUS"
}
, {
  "name" : "SERVICE STATION",
  "feature_id" : "52989",
  "longitude" : "149.133254250769",
  "latitude" : "-35.5715393166552",
  "extracted" : "20150601",
  "district" : "TUGGERANONG",
  "type" : "BUILDING"
}
, {
  "division" : "WESTON",
  "name" : "ORANA SCHOOL",
  "feature_id" : "52959",
  "longitude" : "149.058131596574",
  "latitude" : "-35.3275879397752",
  "extracted" : "20150601",
  "district" : "WESTON CREEK",
  "type" : "BUILDING"
}
, {
  "division" : "WATSON",
  "name" : "KALOWNA",
  "feature_id" : "52926",
  "longitude" : "149.153501629769",
  "latitude" : "-35.2301371966669",
  "extracted" : "20150601",
  "district" : "CANBERRA CENTRAL",
  "type" : "BUILDING"
}
, {
  "division" : "REID",
  "name" : "ST JOHN THE BAPTIST CHURCH",
  "feature_id" : "52472",
  "longitude" : "149.14060633375",
  "latitude" : "-35.2879942801766",
  "extracted" : "20150601",
  "district" : "CANBERRA CENTRAL",
  "type" : "BUILDING"
}
, {
  "division" : "REID",
  "name" : "ANGLICAN PARISH CENTRE",
  "feature_id" : "52473",
  "longitude" : "149.139756389979",
  "latitude" : "-35.2868509376819",
  "extracted" : "20150601",
  "district" : "CANBERRA CENTRAL",
  "type" : "BUILDING"
}
, {
  "division" : "REID",
  "name" : "CHURCH OF ENGLAND RECTORY",
  "feature_id" : "52474",
  "longitude" : "149.140368256438",
  "latitude" : "-35.2884509600379",
  "extracted" : "20150601",
  "district" : "CANBERRA CENTRAL",
  "type" : "BUILDING"
}
, {
  "division" : "REID",
  "name" : "SCOUT HALL",
  "feature_id" : "52475",
  "longitude" : "149.140121335554",
  "latitude" : "-35.2865832711928",
  "extracted" : "20150601",
  "district" : "CANBERRA CENTRAL",
  "type" : "BUILDING"
}
, {
  "division" : "REID",
  "name" : "TENNIS COURTS",
  "feature_id" : "52476",
  "longitude" : "149.14091312931",
  "latitude" : "-35.2815061063572",
  "extracted" : "20150601",
  "district" : "CANBERRA CENTRAL",
  "type" : "MISCELLANEOUS"
}
, {
  "division" : "REID",
  "name" : "PRE-SCHOOL",
  "feature_id" : "52477",
  "longitude" : "149.14015365537",
  "latitude" : "-35.2825010170272",
  "extracted" : "20150601",
  "district" : "CANBERRA CENTRAL",
  "type" : "BUILDING"
}
, {
  "division" : "REID",
  "name" : "CANBERRA INSTITUTE OF TECHNOLOGY",
  "feature_id" : "52478",
  "longitude" : "149.136991470071",
  "latitude" : "-35.2856329378595",
  "extracted" : "20150601",
  "district" : "CANBERRA CENTRAL",
  "type" : "BUILDING"
}
, {
  "division" : "REID",
  "name" : "GOVERNMENT DEPOT",
  "feature_id" : "52479",
  "longitude" : "149.146063708884",
  "latitude" : "-35.2824487650366",
  "extracted" : "20150601",
  "district" : "CANBERRA CENTRAL",
  "type" : "BUILDING"
}
, {
  "division" : "REID",
  "name" : "ST JOHNS SCHOOLHOUSE MUSEUM",
  "feature_id" : "52480",
  "longitude" : "149.139743283887",
  "latitude" : "-35.2875363978042",
  "extracted" : "20150601",
  "district" : "CANBERRA CENTRAL",
  "type" : "BUILDING"
}
, {
  "division" : "REID",
  "name" : "CHANGE ROOMS",
  "feature_id" : "52481",
  "longitude" : "149.144679774934",
  "latitude" : "-35.2814924770538",
  "extracted" : "20150601",
  "district" : "CANBERRA CENTRAL",
  "type" : "BUILDING"
}
, {
  "division" : "REID",
  "name" : "OVAL",
  "feature_id" : "52482",
  "longitude" : "149.145694075414",
  "latitude" : "-35.2817337567767",
  "extracted" : "20150601",
  "district" : "CANBERRA CENTRAL",
  "type" : "MISCELLANEOUS"
}
, {
  "division" : "REID",
  "name" : "PARK",
  "feature_id" : "52483",
  "longitude" : "149.142687710729",
  "latitude" : "-35.2840636431824",
  "extracted" : "20150601",
  "district" : "CANBERRA CENTRAL",
  "type" : "RESERVE,PARK,NATIONAL PARK,CONSERVATION PARK,COMMON"
}
, {
  "division" : "REID",
  "name" : "REID PARK",
  "feature_id" : "52484",
  "longitude" : "149.145241726119",
  "latitude" : "-35.2809425669585",
  "extracted" : "20150601",
  "district" : "CANBERRA CENTRAL",
  "type" : "RESERVE,PARK,NATIONAL PARK,CONSERVATION PARK,COMMON"
}
, {
  "division" : "REID",
  "name" : "PARK",
  "feature_id" : "52485",
  "longitude" : "149.143595460942",
  "latitude" : "-35.2830642469307",
  "extracted" : "20150601",
  "district" : "CANBERRA CENTRAL",
  "type" : "RESERVE,PARK,NATIONAL PARK,CONSERVATION PARK,COMMON"
}
, {
  "division" : "REID",
  "name" : "WUNDERLY COTTAGE",
  "feature_id" : "52487",
  "longitude" : "149.140608351055",
  "latitude" : "-35.2870430822791",
  "extracted" : "20150601",
  "district" : "CANBERRA CENTRAL",
  "type" : "BUILDING"
}
, {
  "division" : "RED HILL",
  "name" : "MORLING LODGE",
  "feature_id" : "52454",
  "longitude" : "149.128234558487",
  "latitude" : "-35.3382849557747",
  "extracted" : "20150601",
  "district" : "CANBERRA CENTRAL",
  "type" : "BUILDING"
}
, {
  "division" : "PIALLIGO",
  "name" : "NURSERY",
  "feature_id" : "52421",
  "longitude" : "149.181237827092",
  "latitude" : "-35.3071641919239",
  "extracted" : "20150601",
  "district" : "MAJURA",
  "type" : "BUILDING"
}
, {
  "division" : "PIALLIGO",
  "name" : "NURSERY",
  "feature_id" : "52422",
  "longitude" : "149.180337567551",
  "latitude" : "-35.3048877605558",
  "extracted" : "20150601",
  "district" : "MAJURA",
  "type" : "BUILDING"
}
, {
  "division" : "PIALLIGO",
  "name" : "NURSERY",
  "feature_id" : "52423",
  "longitude" : "149.185001172865",
  "latitude" : "-35.3112082154602",
  "extracted" : "20150601",
  "district" : "MAJURA",
  "type" : "BUILDING"
}
, {
  "division" : "PIALLIGO",
  "name" : "DUNTROON WOOLSHED",
  "feature_id" : "52424",
  "longitude" : "149.183152727583",
  "latitude" : "-35.2965919930748",
  "extracted" : "20150601",
  "district" : "MAJURA",
  "type" : "HOMESTEAD, OUTSTATION, OUTCAMP, WOOLSHED"
}
, {
  "division" : "PIALLIGO",
  "name" : "MAGAZINE",
  "feature_id" : "52425",
  "longitude" : "149.209797801367",
  "latitude" : "-35.3246848201764",
  "extracted" : "20150601",
  "district" : "MAJURA",
  "type" : "MISCELLANEOUS"
}
, {
  "division" : "PIALLIGO",
  "name" : "SCHOOL",
  "feature_id" : "52426",
  "longitude" : "149.179562707181",
  "latitude" : "-35.3003307689162",
  "extracted" : "20150601",
  "district" : "MAJURA",
  "type" : "BUILDING"
}
, {
  "division" : "PIALLIGO",
  "name" : "OVAL",
  "feature_id" : "52427",
  "longitude" : "149.176404137222",
  "latitude" : "-35.3013131881529",
  "extracted" : "20150601",
  "district" : "MAJURA",
  "type" : "MISCELLANEOUS"
}
, {
  "division" : "PIALLIGO",
  "name" : "DOVE COTTAGE",
  "feature_id" : "52428",
  "longitude" : "149.188938623139",
  "latitude" : "-35.2810511276428",
  "extracted" : "20150601",
  "district" : "MAJURA",
  "type" : "HOMESTEAD, OUTSTATION, OUTCAMP, WOOLSHED"
}
, {
  "division" : "RED HILL",
  "name" : "RED HILL SHOPS",
  "feature_id" : "52430",
  "longitude" : "149.131459581739",
  "latitude" : "-35.3411979750396",
  "extracted" : "20150601",
  "district" : "CANBERRA CENTRAL",
  "type" : "BUILDING"
}
, {
  "division" : "RED HILL",
  "name" : "KIOSK",
  "feature_id" : "52431",
  "longitude" : "149.116780114343",
  "latitude" : "-35.3286653534913",
  "extracted" : "20150601",
  "district" : "CANBERRA CENTRAL",
  "type" : "BUILDING"
}
, {
  "division" : "RED HILL",
  "name" : "CHILDCARE CENTRE",
  "feature_id" : "52432",
  "longitude" : "149.132855584423",
  "latitude" : "-35.3386502694768",
  "extracted" : "20150601",
  "district" : "CANBERRA CENTRAL",
  "type" : "BUILDING"
}
, {
  "division" : "RED HILL",
  "name" : "SCOUT HALL",
  "feature_id" : "52433",
  "longitude" : "149.133260411768",
  "latitude" : "-35.3376529957148",
  "extracted" : "20150601",
  "district" : "CANBERRA CENTRAL",
  "type" : "BUILDING"
}
, {
  "division" : "RED HILL",
  "name" : "TENNIS COURTS",
  "feature_id" : "52435",
  "longitude" : "149.132762583764",
  "latitude" : "-35.3369468673556",
  "extracted" : "20150601",
  "district" : "CANBERRA CENTRAL",
  "type" : "MISCELLANEOUS"
}
, {
  "division" : "RED HILL",
  "name" : "TENNIS COURTS",
  "feature_id" : "52436",
  "longitude" : "149.127040799712",
  "latitude" : "-35.3325444420887",
  "extracted" : "20150601",
  "district" : "CANBERRA CENTRAL",
  "type" : "MISCELLANEOUS"
}
, {
  "division" : "RED HILL",
  "name" : "TOILETS",
  "feature_id" : "52437",
  "longitude" : "149.11654384988",
  "latitude" : "-35.3288238505793",
  "extracted" : "20150601",
  "district" : "WODEN VALLEY",
  "type" : "BUILDING"
}
, {
  "division" : "TURNER",
  "name" : "CANBERRA NORTH BOWLING CLUB",
  "feature_id" : "54247",
  "longitude" : "149.124385576354",
  "latitude" : "-35.2680365827042",
  "extracted" : "20150601",
  "district" : "CANBERRA CENTRAL",
  "type" : "BUILDING"
}
, {
  "division" : "O'CONNOR",
  "name" : "UNITING CHURCH OF AUSTRALIA",
  "feature_id" : "54187",
  "longitude" : "149.121401968909",
  "latitude" : "-35.255279447199",
  "extracted" : "20150601",
  "district" : "CANBERRA CENTRAL",
  "type" : "BUILDING"
}
, {
  "division" : "RED HILL",
  "name" : "ST BEDE'S PRIMARY SCHOOL",
  "feature_id" : "54034",
  "longitude" : "149.128140141814",
  "latitude" : "-35.3387759358977",
  "extracted" : "20150601",
  "district" : "CANBERRA CENTRAL",
  "type" : "BUILDING"
}
, {
  "division" : "NARRABUNDAH",
  "name" : "ST BENEDICTS RC PRIMARY SCHOOL",
  "feature_id" : "54035",
  "longitude" : "149.148438484636",
  "latitude" : "-35.334776295607",
  "extracted" : "20150601",
  "district" : "CANBERRA CENTRAL",
  "type" : "BUILDING"
}
, {
  "division" : "GRIFFITH",
  "name" : "ST CLARE'S CATHOLIC GIRLS HIGH SCHOOL",
  "feature_id" : "54040",
  "longitude" : "149.147714278769",
  "latitude" : "-35.3242844594579",
  "extracted" : "20150601",
  "district" : "CANBERRA CENTRAL",
  "type" : "BUILDING"
}
, {
  "division" : "GRIFFITH",
  "name" : "ST EDMUND'S CHRISTIAN BROTHERS WAR MEMORIAL COLLEGE",
  "feature_id" : "54043",
  "longitude" : "149.144421116157",
  "latitude" : "-35.3237231785803",
  "extracted" : "20150601",
  "district" : "CANBERRA CENTRAL",
  "type" : "BUILDING"
}
, {
  "division" : "CALWELL",
  "name" : "ST FRANCIS OF ASSISI PRIMARY SCHOOL",
  "feature_id" : "54044",
  "longitude" : "149.119417756888",
  "latitude" : "-35.4414923078343",
  "extracted" : "20150601",
  "district" : "TUGGERANONG",
  "type" : "BUILDING"
}
, {
  "division" : "WARAMANGA",
  "name" : "ST JOHN VIANNEY PRIMARY SCHOOL",
  "feature_id" : "54045",
  "longitude" : "149.054997304701",
  "latitude" : "-35.3522320298832",
  "extracted" : "20150601",
  "district" : "WESTON CREEK",
  "type" : "BUILDING"
}
, {
  "division" : "HOLDER",
  "name" : "ST JUDE'S PRIMARY SCHOOL",
  "feature_id" : "54051",
  "longitude" : "149.050578736115",
  "latitude" : "-35.3341307964303",
  "extracted" : "20150601",
  "district" : "WESTON CREEK",
  "type" : "BUILDING"
}
, {
  "division" : "GOWRIE",
  "name" : "HOLY FAMILY PARISH PRIMARY SCHOOL",
  "feature_id" : "53995",
  "longitude" : "149.116178166405",
  "latitude" : "-35.4101242614935",
  "extracted" : "20150601",
  "district" : "TUGGERANONG",
  "type" : "BUILDING"
}
, {
  "division" : "CURTIN",
  "name" : "HOLY TRINITY PRIMARY SCHOOL",
  "feature_id" : "53997",
  "longitude" : "149.08136831868",
  "latitude" : "-35.3279626833652",
  "extracted" : "20150601",
  "district" : "WODEN VALLEY",
  "type" : "BUILDING"
}
, {
  "division" : "PEARCE",
  "name" : "PRE-SCHOOL",
  "feature_id" : "54028",
  "longitude" : "149.083775703122",
  "latitude" : "-35.3658437184935",
  "extracted" : "20150601",
  "district" : "WODEN VALLEY",
  "type" : "BUILDING"
}
, {
  "division" : "WATSON",
  "name" : "A'BECKETT COURT",
  "feature_id" : "52927",
  "longitude" : "149.152845942307",
  "latitude" : "-35.23864440113",
  "extracted" : "20150601",
  "district" : "CANBERRA CENTRAL",
  "type" : "BUILDING"
}
, {
  "division" : "WATSON",
  "name" : "SPRINGFIELD COURT",
  "feature_id" : "52928",
  "longitude" : "149.156531136538",
  "latitude" : "-35.2387555366924",
  "extracted" : "20150601",
  "district" : "CANBERRA CENTRAL",
  "type" : "BUILDING"
}
, {
  "division" : "WATSON",
  "name" : "PASADENA",
  "feature_id" : "52929",
  "longitude" : "149.156195819785",
  "latitude" : "-35.2394821045487",
  "extracted" : "20150601",
  "district" : "CANBERRA CENTRAL",
  "type" : "BUILDING"
}
, {
  "division" : "WATSON",
  "name" : "ARIZONA",
  "feature_id" : "52930",
  "longitude" : "149.156029510175",
  "latitude" : "-35.2390994288817",
  "extracted" : "20150601",
  "district" : "CANBERRA CENTRAL",
  "type" : "BUILDING"
}
, {
  "division" : "WATSON",
  "name" : "NEVADA",
  "feature_id" : "52931",
  "longitude" : "149.155790896678",
  "latitude" : "-35.2393274110561",
  "extracted" : "20150601",
  "district" : "CANBERRA CENTRAL",
  "type" : "BUILDING"
}
, {
  "division" : "WATSON",
  "name" : "WINDEYER COURT",
  "feature_id" : "52932",
  "longitude" : "149.155012134905",
  "latitude" : "-35.2397497097246",
  "extracted" : "20150601",
  "district" : "CANBERRA CENTRAL",
  "type" : "BUILDING"
}
, {
  "division" : "WEETANGERA",
  "name" : "VET",
  "feature_id" : "52933",
  "longitude" : "149.055664182825",
  "latitude" : "-35.2441877386358",
  "extracted" : "20150601",
  "district" : "BELCONNEN",
  "type" : "MISCELLANEOUS"
}
, {
  "division" : "WEETANGERA",
  "name" : "SHOPS",
  "feature_id" : "52934",
  "longitude" : "149.049343220449",
  "latitude" : "-35.2494144780362",
  "extracted" : "20150601",
  "district" : "BELCONNEN",
  "type" : "BUILDING"
}
, {
  "division" : "WEETANGERA",
  "name" : "PRE-SCHOOL",
  "feature_id" : "52935",
  "longitude" : "149.046528864447",
  "latitude" : "-35.2512515348644",
  "extracted" : "20150601",
  "district" : "BELCONNEN",
  "type" : "BUILDING"
}
, {
  "division" : "WEETANGERA",
  "name" : "WEETANGERA PRIMARY SCHOOL",
  "feature_id" : "52936",
  "longitude" : "149.047558568971",
  "latitude" : "-35.2520494512077",
  "extracted" : "20150601",
  "district" : "BELCONNEN",
  "type" : "BUILDING"
}
, {
  "division" : "WEETANGERA",
  "name" : "OVAL",
  "feature_id" : "52937",
  "longitude" : "149.04760777772",
  "latitude" : "-35.2496201346984",
  "extracted" : "20150601",
  "district" : "BELCONNEN",
  "type" : "MISCELLANEOUS"
}
, {
  "division" : "WEETANGERA",
  "name" : "WEETANGERA GARDENS",
  "feature_id" : "52938",
  "longitude" : "149.046638914104",
  "latitude" : "-35.2470108909358",
  "extracted" : "20150601",
  "district" : "BELCONNEN",
  "type" : "BUILDING"
}
, {
  "division" : "WESTON",
  "name" : "GARAGE",
  "feature_id" : "52939",
  "longitude" : "149.051935462379",
  "latitude" : "-35.340090440942",
  "extracted" : "20150601",
  "district" : "WESTON CREEK",
  "type" : "BUILDING"
}
, {
  "division" : "WESTON",
  "name" : "SHOP",
  "feature_id" : "52940",
  "longitude" : "149.05582442622",
  "latitude" : "-35.3339344298206",
  "extracted" : "20150601",
  "district" : "WESTON CREEK",
  "type" : "BUILDING"
}
, {
  "division" : "WESTON",
  "name" : "RESTAURANT",
  "feature_id" : "52941",
  "longitude" : "149.053479773896",
  "latitude" : "-35.3397538340353",
  "extracted" : "20150601",
  "district" : "WESTON CREEK",
  "type" : "BUILDING"
}
, {
  "division" : "WESTON",
  "name" : "COOLEMAN COURT",
  "feature_id" : "52942",
  "longitude" : "149.052785105261",
  "latitude" : "-35.3412790838894",
  "extracted" : "20150601",
  "district" : "WESTON CREEK",
  "type" : "BUILDING"
}
, {
  "division" : "WESTON",
  "name" : "SHOPS",
  "feature_id" : "52943",
  "longitude" : "149.053006218389",
  "latitude" : "-35.3415942933377",
  "extracted" : "20150601",
  "district" : "WESTON CREEK",
  "type" : "BUILDING"
}
, {
  "division" : "WESTON",
  "name" : "SHOPS",
  "feature_id" : "52944",
  "longitude" : "149.051828890626",
  "latitude" : "-35.341746018004",
  "extracted" : "20150601",
  "district" : "WESTON CREEK",
  "type" : "BUILDING"
}
, {
  "division" : "WESTON",
  "name" : "MIRINJANI RETIREMENT VILLAGE",
  "feature_id" : "52945",
  "longitude" : "149.055314449437",
  "latitude" : "-35.3386515776525",
  "extracted" : "20150601",
  "district" : "WESTON CREEK",
  "type" : "BUILDING"
}
, {
  "division" : "WESTON",
  "name" : "CHILDCARE CENTRE",
  "feature_id" : "52946",
  "longitude" : "149.05587227024",
  "latitude" : "-35.3429385295008",
  "extracted" : "20150601",
  "district" : "WESTON CREEK",
  "type" : "BUILDING"
}
, {
  "division" : "WESTON",
  "name" : "CHURCH OF CHRIST",
  "feature_id" : "52947",
  "longitude" : "149.057120615926",
  "latitude" : "-35.3437141082789",
  "extracted" : "20150601",
  "district" : "WESTON CREEK",
  "type" : "BUILDING"
}
, {
  "division" : "WESTON",
  "name" : "UNITING CHURCH",
  "feature_id" : "52948",
  "longitude" : "149.055159670739",
  "latitude" : "-35.3421968052813",
  "extracted" : "20150601",
  "district" : "WESTON CREEK",
  "type" : "BUILDING"
}
, {
  "division" : "WESTON",
  "name" : "SCOUT HALL",
  "feature_id" : "52951",
  "longitude" : "149.052901920973",
  "latitude" : "-35.337801287516",
  "extracted" : "20150601",
  "district" : "WESTON CREEK",
  "type" : "BUILDING"
}
, {
  "division" : "WESTON",
  "name" : "INDOOR CRICKET",
  "feature_id" : "52952",
  "longitude" : "149.052698852266",
  "latitude" : "-35.3397125503157",
  "extracted" : "20150601",
  "district" : "WESTON CREEK",
  "type" : "BUILDING"
}
, {
  "division" : "WESTON",
  "name" : "CANBERRA RAIDERS SPORTS CLUB",
  "feature_id" : "52954",
  "longitude" : "149.051264607834",
  "latitude" : "-35.342891845727",
  "extracted" : "20150601",
  "district" : "WESTON CREEK",
  "type" : "BUILDING"
}
, {
  "division" : "WESTON",
  "name" : "IRISH CLUB",
  "feature_id" : "52955",
  "longitude" : "149.056374297849",
  "latitude" : "-35.3430069782975",
  "extracted" : "20150601",
  "district" : "WESTON CREEK",
  "type" : "BUILDING"
}
, {
  "division" : "WESTON",
  "name" : "COMMUNITY CENTRE",
  "feature_id" : "52956",
  "longitude" : "149.053734106282",
  "latitude" : "-35.3416775568394",
  "extracted" : "20150601",
  "district" : "WESTON CREEK",
  "type" : "BUILDING"
}
, {
  "division" : "WESTON",
  "name" : "ACT BAHA'I COMMUNITY INFORMATION CENTRE",
  "feature_id" : "52957",
  "longitude" : "149.059636068103",
  "latitude" : "-35.3246502268348",
  "extracted" : "20150601",
  "district" : "WESTON CREEK",
  "type" : "BUILDING"
}
, {
  "division" : "WESTON",
  "name" : "TENNIS COURTS",
  "feature_id" : "52958",
  "longitude" : "149.052666436751",
  "latitude" : "-35.3386940386669",
  "extracted" : "20150601",
  "district" : "WESTON CREEK",
  "type" : "MISCELLANEOUS"
}
, {
  "division" : "WATSON",
  "name" : "BREMEN",
  "feature_id" : "52925",
  "longitude" : "149.154304622843",
  "latitude" : "-35.2299174533722",
  "extracted" : "20150601",
  "district" : "CANBERRA CENTRAL",
  "type" : "BUILDING"
}
, {
  "division" : "RED HILL",
  "name" : "EMBASSY OF FORMER YUGOSLAVIA",
  "feature_id" : "52438",
  "longitude" : "149.129335263782",
  "latitude" : "-35.3400675552269",
  "extracted" : "20150601",
  "district" : "CANBERRA CENTRAL",
  "type" : "BUILDING"
}
, {
  "division" : "YARRALUMLA",
  "name" : "EMBASSY OF THE REPUBLIC OF TURKEY",
  "feature_id" : "52439",
  "longitude" : "149.11826458215",
  "latitude" : "-35.3077827329656",
  "extracted" : "20150601",
  "district" : "CANBERRA CENTRAL",
  "type" : "BUILDING"
}
, {
  "division" : "RED HILL",
  "name" : "EMBASSY OF LEBANON",
  "feature_id" : "52440",
  "longitude" : "149.129937846088",
  "latitude" : "-35.3448586110225",
  "extracted" : "20150601",
  "district" : "CANBERRA CENTRAL",
  "type" : "BUILDING"
}
, {
  "division" : "RED HILL",
  "name" : "BANGLADESH HIGH COMMISSION",
  "feature_id" : "52441",
  "longitude" : "149.129298941749",
  "latitude" : "-35.3456238555524",
  "extracted" : "20150601",
  "district" : "CANBERRA CENTRAL",
  "type" : "BUILDING"
}
, {
  "division" : "RED HILL",
  "name" : "EMBASSY OF JORDAN",
  "feature_id" : "52442",
  "longitude" : "149.125582516897",
  "latitude" : "-35.3425645397066",
  "extracted" : "20150601",
  "district" : "CANBERRA CENTRAL",
  "type" : "BUILDING"
}
, {
  "division" : "RED HILL",
  "name" : "MALTA HIGH COMMISSION",
  "feature_id" : "52443",
  "longitude" : "149.123063444055",
  "latitude" : "-35.3383835228408",
  "extracted" : "20150601",
  "district" : "CANBERRA CENTRAL",
  "type" : "BUILDING"
}
, {
  "division" : "RED HILL",
  "name" : "EMBASSY OF THE HOLY SEE",
  "feature_id" : "52444",
  "longitude" : "149.126556270975",
  "latitude" : "-35.3275288148658",
  "extracted" : "20150601",
  "district" : "CANBERRA CENTRAL",
  "type" : "BUILDING"
}
, {
  "division" : "RED HILL",
  "name" : "CANBERRA GRAMMAR SCHOOL",
  "feature_id" : "52445",
  "longitude" : "149.126013068331",
  "latitude" : "-35.3317993667655",
  "extracted" : "20150601",
  "district" : "CANBERRA CENTRAL",
  "type" : "BUILDING"
}
, {
  "division" : "RED HILL",
  "name" : "FRENCH AUSTRALIAN PRE-SCHOOL",
  "feature_id" : "52446",
  "longitude" : "149.13252604015",
  "latitude" : "-35.338261261525",
  "extracted" : "20150601",
  "district" : "CANBERRA CENTRAL",
  "type" : "BUILDING"
}
, {
  "division" : "RED HILL",
  "name" : "PRE-SCHOOL",
  "feature_id" : "52447",
  "longitude" : "149.132035301134",
  "latitude" : "-35.3393217798993",
  "extracted" : "20150601",
  "district" : "CANBERRA CENTRAL",
  "type" : "BUILDING"
}
, {
  "division" : "RED HILL",
  "name" : "RED HILL PRIMARY SCHOOL",
  "feature_id" : "52448",
  "longitude" : "149.133238985886",
  "latitude" : "-35.3396032954725",
  "extracted" : "20150601",
  "district" : "CANBERRA CENTRAL",
  "type" : "BUILDING"
}
, {
  "division" : "RED HILL",
  "name" : "RED HILL",
  "feature_id" : "52450",
  "longitude" : "149.116495790228",
  "latitude" : "-35.328236644015",
  "extracted" : "20150601",
  "district" : "CANBERRA CENTRAL",
  "type" : "HILL, KNOLL, KNOB, MESA, SUGARLOAF, LOOKOUT"
}
, {
  "division" : "RED HILL",
  "name" : "PO",
  "feature_id" : "52452",
  "longitude" : "149.131231988826",
  "latitude" : "-35.3409946413861",
  "extracted" : "20150601",
  "district" : "CANBERRA CENTRAL",
  "type" : "BUILDING"
}
, {
  "division" : "RED HILL",
  "name" : "RESERVOIR",
  "feature_id" : "52453",
  "longitude" : "149.114098919159",
  "latitude" : "-35.324941916302",
  "extracted" : "20150601",
  "district" : "WODEN VALLEY",
  "type" : "RESERVOIR, PONDAGE, ARTIFICIAL LAKE"
}
, {
  "division" : "PIALLIGO",
  "name" : "NURSERY",
  "feature_id" : "52420",
  "longitude" : "149.177929177453",
  "latitude" : "-35.3043954063948",
  "extracted" : "20150601",
  "district" : "MAJURA",
  "type" : "BUILDING"
}
, {
  "division" : "PHILLIP",
  "name" : "FOOTBALL PARK",
  "feature_id" : "52390",
  "longitude" : "149.086072171551",
  "latitude" : "-35.3401820123737",
  "extracted" : "20150601",
  "district" : "WODEN VALLEY",
  "type" : "MISCELLANEOUS"
}
, {
  "division" : "PHILLIP",
  "name" : "WODEN TOWN PARK",
  "feature_id" : "52393",
  "longitude" : "149.088585403375",
  "latitude" : "-35.3443652557695",
  "extracted" : "20150601",
  "district" : "WODEN VALLEY",
  "type" : "RESERVE,PARK,NATIONAL PARK,CONSERVATION PARK,COMMON"
}
, {
  "division" : "PHILLIP",
  "name" : "ARABANOO PARK",
  "feature_id" : "52394",
  "longitude" : "149.08938524885",
  "latitude" : "-35.3438356527528",
  "extracted" : "20150601",
  "district" : "WODEN VALLEY",
  "type" : "RESERVE,PARK,NATIONAL PARK,CONSERVATION PARK,COMMON"
}
, {
  "division" : "PHILLIP",
  "name" : "ALBURY COURT",
  "feature_id" : "52395",
  "longitude" : "149.093151380739",
  "latitude" : "-35.351183268108",
  "extracted" : "20150601",
  "district" : "WODEN VALLEY",
  "type" : "BUILDING"
}
, {
  "division" : "PHILLIP",
  "name" : "PARK VIEW",
  "feature_id" : "52396",
  "longitude" : "149.09331317956",
  "latitude" : "-35.3515298831736",
  "extracted" : "20150601",
  "district" : "WODEN VALLEY",
  "type" : "BUILDING"
}
, {
  "division" : "PHILLIP",
  "name" : "TRAFALGAR TERRACE",
  "feature_id" : "52397",
  "longitude" : "149.092806095374",
  "latitude" : "-35.348232376396",
  "extracted" : "20150601",
  "district" : "WODEN VALLEY",
  "type" : "BUILDING"
}
, {
  "division" : "PHILLIP",
  "name" : "GEORGIAN MEWS",
  "feature_id" : "52398",
  "longitude" : "149.094807393685",
  "latitude" : "-35.3475083870472",
  "extracted" : "20150601",
  "district" : "WODEN VALLEY",
  "type" : "BUILDING"
}
, {
  "division" : "PHILLIP",
  "name" : "CENTRAL PARK",
  "feature_id" : "52399",
  "longitude" : "149.09838600736",
  "latitude" : "-35.348719017985",
  "extracted" : "20150601",
  "district" : "WODEN VALLEY",
  "type" : "BUILDING"
}
, {
  "division" : "PHILLIP",
  "name" : "CAMMERAY COURT",
  "feature_id" : "52400",
  "longitude" : "149.098442537945",
  "latitude" : "-35.3476393966382",
  "extracted" : "20150601",
  "district" : "WODEN VALLEY",
  "type" : "BUILDING"
}
, {
  "division" : "O'CONNOR",
  "name" : "PLAYING FIELDS",
  "feature_id" : "54182",
  "longitude" : "149.124312079836",
  "latitude" : "-35.2618151981364",
  "extracted" : "20150601",
  "district" : "CANBERRA CENTRAL",
  "type" : "MISCELLANEOUS"
}
, {
  "division" : "DICKSON",
  "name" : "DICKSON LIBRARY",
  "feature_id" : "54152",
  "longitude" : "149.139473589411",
  "latitude" : "-35.2496852254691",
  "extracted" : "20150601",
  "district" : "CANBERRA CENTRAL",
  "type" : "BUILDING"
}
, {
  "division" : "CHARNWOOD",
  "name" : "ST THOMAS AQUINAS PRIMARY SCHOOL",
  "feature_id" : "54064",
  "longitude" : "149.030032396456",
  "latitude" : "-35.2052788144373",
  "extracted" : "20150601",
  "district" : "BELCONNEN",
  "type" : "BUILDING"
}
, {
  "division" : "CAMPBELL",
  "name" : "ST THOMAS MORE'S PRIMARY SCHOOL",
  "feature_id" : "54065",
  "longitude" : "149.156544852374",
  "latitude" : "-35.2871080385807",
  "extracted" : "20150601",
  "district" : "CANBERRA CENTRAL",
  "type" : "BUILDING"
}
, {
  "division" : "THEODORE",
  "name" : "THEODORE PRE SCHOOL",
  "feature_id" : "54067",
  "longitude" : "149.124067315744",
  "latitude" : "-35.4473260887726",
  "extracted" : "20150601",
  "district" : "TUGGERANONG",
  "type" : "BUILDING"
}
, {
  "division" : "TURNER",
  "name" : "TREEHOUSE PRESCHOOL & CHILDCARE",
  "feature_id" : "54069",
  "longitude" : "149.120532019149",
  "latitude" : "-35.2682467369791",
  "extracted" : "20150601",
  "district" : "CANBERRA CENTRAL",
  "type" : "BUILDING"
}
, {
  "division" : "TURNER",
  "name" : "TURNER PRIMARY SCHOOL",
  "feature_id" : "54070",
  "longitude" : "149.126642736597",
  "latitude" : "-35.2644966917942",
  "extracted" : "20150601",
  "district" : "CANBERRA CENTRAL",
  "type" : "BUILDING"
}
, {
  "division" : "ACTON",
  "name" : "UNIVERSITY HEALTH & COUNSELLING CENTRE",
  "feature_id" : "54071",
  "longitude" : "149.121491020386",
  "latitude" : "-35.2757015918343",
  "extracted" : "20150601",
  "district" : "CANBERRA CENTRAL",
  "type" : "BUILDING"
}
